[
  {
      "SEARCHVAL": "ADMIRALTY PRIMARY SCHOOL",
      "BLK_NO": "11",
      "ROAD_NAME": "WOODLANDS CIRCLE",
      "BUILDING": "ADMIRALTY PRIMARY SCHOOL",
      "ADDRESS": "11 WOODLANDS CIRCLE ADMIRALTY PRIMARY SCHOOL SINGAPORE 738907",
      "POSTAL": "738907",
      "X": "24296.6250855923",
      "Y": "47144.7700594738",
      "LATITUDE": "1.4426347903311",
      "LONGITUDE": "103.800040119743",
      "LONGTITUDE": "103.800040119743"
  },
  {
      "SEARCHVAL": "AFTERSCHOOL @ BUKIT TIMAH PRIMARY SCHOOL",
      "BLK_NO": "111",
      "ROAD_NAME": "LORONG KISMIS",
      "BUILDING": "AFTERSCHOOL @ BUKIT TIMAH PRIMARY SCHOOL",
      "ADDRESS": "111 LORONG KISMIS AFTERSCHOOL @ BUKIT TIMAH PRIMARY SCHOOL SINGAPORE 598112",
      "POSTAL": "598112",
      "X": "20603.3479896449",
      "Y": "35547.1996132508",
      "LATITUDE": "1.3377498622588",
      "LONGITUDE": "103.766855344779",
      "LONGTITUDE": "103.766855344779"
  },
  {
      "SEARCHVAL": "AFTERSCHOOL @ ELIAS PARK PRIMARY SCHOOL",
      "BLK_NO": "11",
      "ROAD_NAME": "PASIR RIS STREET 52",
      "BUILDING": "AFTERSCHOOL @ ELIAS PARK PRIMARY SCHOOL",
      "ADDRESS": "11 PASIR RIS STREET 52 AFTERSCHOOL @ ELIAS PARK PRIMARY SCHOOL SINGAPORE 518866",
      "POSTAL": "518866",
      "X": "40460.9792755861",
      "Y": "39672.6204007976",
      "LATITUDE": "1.37505696315817",
      "LONGITUDE": "103.945289416873",
      "LONGTITUDE": "103.945289416873"
  },
  {
      "SEARCHVAL": "AFTERSCHOOL @ PUNGGOL PRIMARY SCHOOL",
      "BLK_NO": "61",
      "ROAD_NAME": "HOUGANG AVENUE 8",
      "BUILDING": "AFTERSCHOOL @ PUNGGOL PRIMARY SCHOOL",
      "ADDRESS": "61 HOUGANG AVENUE 8 AFTERSCHOOL @ PUNGGOL PRIMARY SCHOOL SINGAPORE 538787",
      "POSTAL": "538787",
      "X": "34827.3316768408",
      "Y": "40020.0263597388",
      "LATITUDE": "1.37820062547641",
      "LONGITUDE": "103.894667159512",
      "LONGTITUDE": "103.894667159512"
  },
  {
      "SEARCHVAL": "AFTERSCHOOL @ RIVER VALLEY PRIMARY SCHOOL",
      "BLK_NO": "2",
      "ROAD_NAME": "RIVER VALLEY GREEN",
      "BUILDING": "AFTERSCHOOL @ RIVER VALLEY PRIMARY SCHOOL",
      "ADDRESS": "2 RIVER VALLEY GREEN AFTERSCHOOL @ RIVER VALLEY PRIMARY SCHOOL SINGAPORE 237993",
      "POSTAL": "237993",
      "X": "28300.5267893467",
      "Y": "30729.7527125087",
      "LATITUDE": "1.29418347842837",
      "LONGITUDE": "103.836018941571",
      "LONGTITUDE": "103.836018941571"
  },
  {
      "SEARCHVAL": "AFTERSCHOOL @ TANJONG KATONG PRIMARY SCHOOL",
      "BLK_NO": "10",
      "ROAD_NAME": "SERAYA ROAD",
      "BUILDING": "AFTERSCHOOL @ TANJONG KATONG PRIMARY SCHOOL",
      "ADDRESS": "10 SERAYA ROAD AFTERSCHOOL @ TANJONG KATONG PRIMARY SCHOOL SINGAPORE 437259",
      "POSTAL": "437259",
      "X": "35421.0272507127",
      "Y": "31924.2153390218",
      "LATITUDE": "1.30498489044822",
      "LONGITUDE": "103.899999965407",
      "LONGTITUDE": "103.899999965407"
  },
  {
      "SEARCHVAL": "AHMAD IBRAHIM PRIMARY SCHOOL",
      "BLK_NO": "10",
      "ROAD_NAME": "YISHUN STREET 11",
      "BUILDING": "AHMAD IBRAHIM PRIMARY SCHOOL",
      "ADDRESS": "10 YISHUN STREET 11 AHMAD IBRAHIM PRIMARY SCHOOL SINGAPORE 768643",
      "POSTAL": "768643",
      "X": "27958.1371433474",
      "Y": "46096.2627680488",
      "LATITUDE": "1.43315271543517",
      "LONGITUDE": "103.832942401086",
      "LONGTITUDE": "103.832942401086"
  },
  {
      "SEARCHVAL": "ALEXANDRA PRIMARY SCHOOL",
      "BLK_NO": "2A",
      "ROAD_NAME": "PRINCE CHARLES CRESCENT",
      "BUILDING": "ALEXANDRA PRIMARY SCHOOL",
      "ADDRESS": "2A PRINCE CHARLES CRESCENT ALEXANDRA PRIMARY SCHOOL SINGAPORE 159016",
      "POSTAL": "159016",
      "X": "27010.1854815315",
      "Y": "30414.7169698272",
      "LATITUDE": "1.29133439161334",
      "LONGITUDE": "103.824424680531",
      "LONGTITUDE": "103.824424680531"
  },
  {
      "SEARCHVAL": "AMP-MERCU STUDENT CARE CENTRE @ FUHUA PRIMARY SCHOOL",
      "BLK_NO": "65",
      "ROAD_NAME": "JURONG EAST STREET 13",
      "BUILDING": "AMP-MERCU STUDENT CARE CENTRE @ FUHUA PRIMARY SCHOOL",
      "ADDRESS": "65 JURONG EAST STREET 13 AMP-MERCU STUDENT CARE CENTRE @ FUHUA PRIMARY SCHOOL SINGAPORE 609647",
      "POSTAL": "609647",
      "X": "17179.4264072292",
      "Y": "35419.8652930856",
      "LATITUDE": "1.33659726465816",
      "LONGITUDE": "103.736089481883",
      "LONGTITUDE": "103.736089481883"
  },
  {
      "SEARCHVAL": "AMP-MERCU STUDENT CARE CENTRE @ QIFA PRIMARY SCHOOL",
      "BLK_NO": "50",
      "ROAD_NAME": "WEST COAST AVENUE",
      "BUILDING": "AMP-MERCU STUDENT CARE CENTRE @ QIFA PRIMARY SCHOOL",
      "ADDRESS": "50 WEST COAST AVENUE AMP-MERCU STUDENT CARE CENTRE @ QIFA PRIMARY SCHOOL SINGAPORE 128104",
      "POSTAL": "128104",
      "X": "19465.1912890384",
      "Y": "32839.9119845238",
      "LATITUDE": "1.3132658326807",
      "LONGITUDE": "103.756629101811",
      "LONGTITUDE": "103.756629101811"
  },
  {
      "SEARCHVAL": "AMP-MERCU STUDENT CARE CENTRE @ TAMPINES PRIMARY SCHOOL",
      "BLK_NO": "250",
      "ROAD_NAME": "TAMPINES STREET 12",
      "BUILDING": "AMP-MERCU STUDENT CARE CENTRE @ TAMPINES PRIMARY SCHOOL",
      "ADDRESS": "250 TAMPINES STREET 12 AMP-MERCU STUDENT CARE CENTRE @ TAMPINES PRIMARY SCHOOL SINGAPORE 529426",
      "POSTAL": "529426",
      "X": "40270.0982013792",
      "Y": "36955.7182075791",
      "LATITUDE": "1.3504863946694",
      "LONGITUDE": "103.943573098509",
      "LONGTITUDE": "103.943573098509"
  },
  {
      "SEARCHVAL": "ANCHOR GREEN PRIMARY SCHOOL",
      "BLK_NO": "31",
      "ROAD_NAME": "ANCHORVALE DRIVE",
      "BUILDING": "ANCHOR GREEN PRIMARY SCHOOL",
      "ADDRESS": "31 ANCHORVALE DRIVE ANCHOR GREEN PRIMARY SCHOOL SINGAPORE 544969",
      "POSTAL": "544969",
      "X": "33992.4459471293",
      "Y": "41365.6329499111",
      "LATITUDE": "1.39036998654612",
      "LONGITUDE": "103.887165375933",
      "LONGTITUDE": "103.887165375933"
  },
  {
      "SEARCHVAL": "ANDERSON PRIMARY SCHOOL",
      "BLK_NO": "19",
      "ROAD_NAME": "ANG MO KIO AVENUE 9",
      "BUILDING": "ANDERSON PRIMARY SCHOOL",
      "ADDRESS": "19 ANG MO KIO AVENUE 9 ANDERSON PRIMARY SCHOOL SINGAPORE 569785",
      "POSTAL": "569785",
      "X": "28898.4776482461",
      "Y": "40690.4297215287",
      "LATITUDE": "1.38426429436736",
      "LONGITUDE": "103.841392081119",
      "LONGTITUDE": "103.841392081119"
  },
  {
      "SEARCHVAL": "ANG MO KIO PRIMARY SCHOOL",
      "BLK_NO": "20",
      "ROAD_NAME": "ANG MO KIO AVENUE 3",
      "BUILDING": "ANG MO KIO PRIMARY SCHOOL",
      "ADDRESS": "20 ANG MO KIO AVENUE 3 ANG MO KIO PRIMARY SCHOOL SINGAPORE 569920",
      "POSTAL": "569920",
      "X": "28702.4804675551",
      "Y": "39038.1602696702",
      "LATITUDE": "1.36932176584608",
      "LONGITUDE": "103.839630858752",
      "LONGTITUDE": "103.839630858752"
  },
  {
      "SEARCHVAL": "ANGLO-CHINESE SCHOOL (PRIMARY)",
      "BLK_NO": "50",
      "ROAD_NAME": "BARKER ROAD",
      "BUILDING": "ANGLO-CHINESE SCHOOL (PRIMARY)",
      "ADDRESS": "50 BARKER ROAD ANGLO-CHINESE SCHOOL (PRIMARY) SINGAPORE 309918",
      "POSTAL": "309918",
      "X": "28254.9829477305",
      "Y": "33404.2340238672",
      "LATITUDE": "1.31837054523521",
      "LONGITUDE": "103.835609732354",
      "LONGTITUDE": "103.835609732354"
  },
  {
      "SEARCHVAL": "ANGSANA PRIMARY SCHOOL",
      "BLK_NO": "3",
      "ROAD_NAME": "TAMPINES STREET 22",
      "BUILDING": "ANGSANA PRIMARY SCHOOL",
      "ADDRESS": "3 TAMPINES STREET 22 ANGSANA PRIMARY SCHOOL SINGAPORE 529366",
      "POSTAL": "529366",
      "X": "41186.5743079996",
      "Y": "36741.9621954821",
      "LATITUDE": "1.34855287558648",
      "LONGITUDE": "103.951808105552",
      "LONGTITUDE": "103.951808105552"
  },
  {
      "SEARCHVAL": "ANGSANA PRIMARY SCHOOL (U/C)",
      "BLK_NO": "51",
      "ROAD_NAME": "TAMPINES STREET 61",
      "BUILDING": "ANGSANA PRIMARY SCHOOL (U/C)",
      "ADDRESS": "51 TAMPINES STREET 61 ANGSANA PRIMARY SCHOOL (U/C) SINGAPORE 528565",
      "POSTAL": "528565",
      "X": "39754.5222957945",
      "Y": "38406.3864220977",
      "LATITUDE": "1.36360590588314",
      "LONGITUDE": "103.9389409004",
      "LONGTITUDE": "103.9389409004"
  },
  {
      "SEARCHVAL": "AVONDALE GRAMMAR SCHOOL (PRIMARY & MIDDLE YEARS CAMPUS)",
      "BLK_NO": "304",
      "ROAD_NAME": "TANGLIN ROAD",
      "BUILDING": "AVONDALE GRAMMAR SCHOOL (PRIMARY & MIDDLE YEARS CAMPUS)",
      "ADDRESS": "304 TANGLIN ROAD AVONDALE GRAMMAR SCHOOL (PRIMARY & MIDDLE YEARS CAMPUS) SINGAPORE 247972",
      "POSTAL": "247972",
      "X": "25953.6039330373",
      "Y": "31066.9158344194",
      "LATITUDE": "1.29723259722684",
      "LONGITUDE": "103.814930809739",
      "LONGTITUDE": "103.814930809739"
  },
  {
      "SEARCHVAL": "BEACON PRIMARY SCHOOL",
      "BLK_NO": "36",
      "ROAD_NAME": "BUKIT PANJANG RING ROAD",
      "BUILDING": "BEACON PRIMARY SCHOOL",
      "ADDRESS": "36 BUKIT PANJANG RING ROAD BEACON PRIMARY SCHOOL SINGAPORE 679944",
      "POSTAL": "679944",
      "X": "21357.64699852",
      "Y": "40655.688190354",
      "LATITUDE": "1.38394936211823",
      "LONGITUDE": "103.773632022975",
      "LONGTITUDE": "103.773632022975"
  },
  {
      "SEARCHVAL": "BEDOK GREEN PRIMARY SCHOOL",
      "BLK_NO": "1",
      "ROAD_NAME": "BEDOK SOUTH AVENUE 2",
      "BUILDING": "BEDOK GREEN PRIMARY SCHOOL",
      "ADDRESS": "1 BEDOK SOUTH AVENUE 2 BEDOK GREEN PRIMARY SCHOOL SINGAPORE 469317",
      "POSTAL": "469317",
      "X": "39636.5324891713",
      "Y": "33965.6893824711",
      "LATITUDE": "1.32344593287992",
      "LONGITUDE": "103.937878976352",
      "LONGTITUDE": "103.937878976352"
  },
  {
      "SEARCHVAL": "BENDEMEER PRIMARY SCHOOL",
      "BLK_NO": "91",
      "ROAD_NAME": "BENDEMEER ROAD",
      "BUILDING": "BENDEMEER PRIMARY SCHOOL",
      "ADDRESS": "91 BENDEMEER ROAD BENDEMEER PRIMARY SCHOOL SINGAPORE 339948",
      "POSTAL": "339948",
      "X": "31570.8074810533",
      "Y": "33784.8514976725",
      "LATITUDE": "1.32181250780475",
      "LONGITUDE": "103.865404167629",
      "LONGTITUDE": "103.865404167629"
  },
  {
      "SEARCHVAL": "BIG HEART STUDENT CARE (BOON LAY GARDEN PRIMARY SCHOOL)",
      "BLK_NO": "20",
      "ROAD_NAME": "BOON LAY DRIVE",
      "BUILDING": "BIG HEART STUDENT CARE (BOON LAY GARDEN PRIMARY SCHOOL)",
      "ADDRESS": "20 BOON LAY DRIVE BIG HEART STUDENT CARE (BOON LAY GARDEN PRIMARY SCHOOL) SINGAPORE 649930",
      "POSTAL": "649930",
      "X": "14594.0803428125",
      "Y": "36110.2863859087",
      "LATITUDE": "1.34284013791617",
      "LONGITUDE": "103.712858381937",
      "LONGTITUDE": "103.712858381937"
  },
  {
      "SEARCHVAL": "BIG HEART STUDENT CARE (CEDAR PRIMARY SCHOOL)",
      "BLK_NO": "15",
      "ROAD_NAME": "CEDAR AVENUE",
      "BUILDING": "BIG HEART STUDENT CARE (CEDAR PRIMARY SCHOOL)",
      "ADDRESS": "15 CEDAR AVENUE BIG HEART STUDENT CARE (CEDAR PRIMARY SCHOOL) SINGAPORE 349700",
      "POSTAL": "349700",
      "X": "32707.7091499828",
      "Y": "35316.1469013225",
      "LATITUDE": "1.33566084356265",
      "LONGITUDE": "103.87562006259",
      "LONGTITUDE": "103.87562006259"
  },
  {
      "SEARCHVAL": "BIG HEART STUDENT CARE (CHONGZHENG PRIMARY SCHOOL)",
      "BLK_NO": "1",
      "ROAD_NAME": "TAMPINES STREET 21",
      "BUILDING": "BIG HEART STUDENT CARE (CHONGZHENG PRIMARY SCHOOL)",
      "ADDRESS": "1 TAMPINES STREET 21 BIG HEART STUDENT CARE (CHONGZHENG PRIMARY SCHOOL) SINGAPORE 529392",
      "POSTAL": "529392",
      "X": "41131.9416870372",
      "Y": "36969.5707135443",
      "LATITUDE": "1.35061130568554",
      "LONGITUDE": "103.951317297552",
      "LONGTITUDE": "103.951317297552"
  },
  {
      "SEARCHVAL": "BIG HEART STUDENT CARE (CONCORD PRIMARY SCHOOL)",
      "BLK_NO": "3",
      "ROAD_NAME": "CHOA CHU KANG AVENUE 4",
      "BUILDING": "BIG HEART STUDENT CARE (CONCORD PRIMARY SCHOOL)",
      "ADDRESS": "3 CHOA CHU KANG AVENUE 4 BIG HEART STUDENT CARE (CONCORD PRIMARY SCHOOL) SINGAPORE 689814",
      "POSTAL": "689814",
      "X": "17231.3486815896",
      "Y": "40248.4434567168",
      "LATITUDE": "1.38026516111464",
      "LONGITUDE": "103.736554295636",
      "LONGTITUDE": "103.736554295636"
  },
  {
      "SEARCHVAL": "BIG HEART STUDENT CARE (PRINCESS ELIZABETH PRIMARY SCHOOL)",
      "BLK_NO": "30",
      "ROAD_NAME": "BUKIT BATOK WEST AVENUE 3",
      "BUILDING": "BIG HEART STUDENT CARE (PRINCESS ELIZABETH PRIMARY SCHOOL)",
      "ADDRESS": "30 BUKIT BATOK WEST AVENUE 3 BIG HEART STUDENT CARE (PRINCESS ELIZABETH PRIMARY SCHOOL) SINGAPORE 659163",
      "POSTAL": "659163",
      "X": "17694.7193374345",
      "Y": "36812.396792436",
      "LATITUDE": "1.34919098857585",
      "LONGITUDE": "103.740719208011",
      "LONGTITUDE": "103.740719208011"
  },
  {
      "SEARCHVAL": "BIG HEART STUDENT CARE (TAMPINES NORTH PRIMARY SCHOOL)",
      "BLK_NO": "30",
      "ROAD_NAME": "TAMPINES AVENUE 9",
      "BUILDING": "BIG HEART STUDENT CARE (TAMPINES NORTH PRIMARY SCHOOL)",
      "ADDRESS": "30 TAMPINES AVENUE 9 BIG HEART STUDENT CARE (TAMPINES NORTH PRIMARY SCHOOL) SINGAPORE 529565",
      "POSTAL": "529565",
      "X": "40848.2810703805",
      "Y": "38061.6583322138",
      "LATITUDE": "1.36048786025607",
      "LONGITUDE": "103.948768900518",
      "LONGTITUDE": "103.948768900518"
  },
  {
      "SEARCHVAL": "BIG HEART STUDENT CARE (WEST VIEW PRIMARY SCHOOL)",
      "BLK_NO": "31",
      "ROAD_NAME": "SENJA ROAD",
      "BUILDING": "BIG HEART STUDENT CARE (WEST VIEW PRIMARY SCHOOL)",
      "ADDRESS": "31 SENJA ROAD BIG HEART STUDENT CARE (WEST VIEW PRIMARY SCHOOL) SINGAPORE 677742",
      "POSTAL": "677742",
      "X": "19871.0048010657",
      "Y": "40637.6069141179",
      "LATITUDE": "1.38378546546228",
      "LONGITUDE": "103.760273432258",
      "LONGTITUDE": "103.760273432258"
  },
  {
      "SEARCHVAL": "BLANGAH RISE PRIMARY SCHOOL",
      "BLK_NO": "91",
      "ROAD_NAME": "TELOK BLANGAH HEIGHTS",
      "BUILDING": "BLANGAH RISE PRIMARY SCHOOL",
      "ADDRESS": "91 TELOK BLANGAH HEIGHTS BLANGAH RISE PRIMARY SCHOOL SINGAPORE 109100",
      "POSTAL": "109100",
      "X": "25252.1938973861",
      "Y": "28732.4526119996",
      "LATITUDE": "1.27612047924037",
      "LONGITUDE": "103.808628535239",
      "LONGTITUDE": "103.808628535239"
  },
  {
      "SEARCHVAL": "BOON LAY GARDEN PRIMARY SCHOOL",
      "BLK_NO": "20",
      "ROAD_NAME": "BOON LAY DRIVE",
      "BUILDING": "BOON LAY GARDEN PRIMARY SCHOOL",
      "ADDRESS": "20 BOON LAY DRIVE BOON LAY GARDEN PRIMARY SCHOOL SINGAPORE 649930",
      "POSTAL": "649930",
      "X": "14641.1027754331",
      "Y": "36147.7026988044",
      "LATITUDE": "1.34317853793318",
      "LONGITUDE": "103.713280889452",
      "LONGTITUDE": "103.713280889452"
  },
  {
      "SEARCHVAL": "BUKIT PANJANG PRIMARY SCHOOL",
      "BLK_NO": "109",
      "ROAD_NAME": "CASHEW ROAD",
      "BUILDING": "BUKIT PANJANG PRIMARY SCHOOL",
      "ADDRESS": "109 CASHEW ROAD BUKIT PANJANG PRIMARY SCHOOL SINGAPORE 679676",
      "POSTAL": "679676",
      "X": "20883.8530479269",
      "Y": "39513.7297099214",
      "LATITUDE": "1.37362179302436",
      "LONGITUDE": "103.769374904025",
      "LONGTITUDE": "103.769374904025"
  },
  {
      "SEARCHVAL": "BUKIT TIMAH PRIMARY SCHOOL",
      "BLK_NO": "111",
      "ROAD_NAME": "LORONG KISMIS",
      "BUILDING": "BUKIT TIMAH PRIMARY SCHOOL",
      "ADDRESS": "111 LORONG KISMIS BUKIT TIMAH PRIMARY SCHOOL SINGAPORE 598112",
      "POSTAL": "598112",
      "X": "20600.383664391",
      "Y": "35497.4072666373",
      "LATITUDE": "1.3372995575169",
      "LONGITUDE": "103.766828720721",
      "LONGTITUDE": "103.766828720721"
  },
  {
      "SEARCHVAL": "BUKIT VIEW PRIMARY SCHOOL",
      "BLK_NO": "18",
      "ROAD_NAME": "BUKIT BATOK STREET 21",
      "BUILDING": "BUKIT VIEW PRIMARY SCHOOL",
      "ADDRESS": "18 BUKIT BATOK STREET 21 BUKIT VIEW PRIMARY SCHOOL SINGAPORE 659634",
      "POSTAL": "659634",
      "X": "19135.5884738322",
      "Y": "36444.0823157039",
      "LATITUDE": "1.34586054788695",
      "LONGITUDE": "103.75366641455",
      "LONGTITUDE": "103.75366641455"
  },
  {
      "SEARCHVAL": "CANBERRA PRIMARY SCHOOL",
      "BLK_NO": "21",
      "ROAD_NAME": "ADMIRALTY DRIVE",
      "BUILDING": "CANBERRA PRIMARY SCHOOL",
      "ADDRESS": "21 ADMIRALTY DRIVE CANBERRA PRIMARY SCHOOL SINGAPORE 757714",
      "POSTAL": "757714",
      "X": "26057.0121687725",
      "Y": "48097.4040875677",
      "LATITUDE": "1.45125024371543",
      "LONGITUDE": "103.815858858929",
      "LONGTITUDE": "103.815858858929"
  },
  {
      "SEARCHVAL": "CANOSSA CATHOLIC PRIMARY SCHOOL",
      "BLK_NO": "1",
      "ROAD_NAME": "SALLIM ROAD",
      "BUILDING": "CANOSSA CATHOLIC PRIMARY SCHOOL",
      "ADDRESS": "1 SALLIM ROAD CANOSSA CATHOLIC PRIMARY SCHOOL SINGAPORE 387621",
      "POSTAL": "387621",
      "X": "33443.1189393327",
      "Y": "34319.1509661097",
      "LATITUDE": "1.32664424544839",
      "LONGITUDE": "103.882227964852",
      "LONGTITUDE": "103.882227964852"
  },
  {
      "SEARCHVAL": "CANTONMENT PRIMARY SCHOOL",
      "BLK_NO": "1",
      "ROAD_NAME": "CANTONMENT CLOSE",
      "BUILDING": "CANTONMENT PRIMARY SCHOOL",
      "ADDRESS": "1 CANTONMENT CLOSE CANTONMENT PRIMARY SCHOOL SINGAPORE 088256",
      "POSTAL": "088256",
      "X": "28739.4305021614",
      "Y": "28660.7930697445",
      "LATITUDE": "1.27547252623201",
      "LONGITUDE": "103.839962631748",
      "LONGTITUDE": "103.839962631748"
  },
  {
      "SEARCHVAL": "CASUARINA PRIMARY SCHOOL",
      "BLK_NO": "30",
      "ROAD_NAME": "PASIR RIS STREET 41",
      "BUILDING": "CASUARINA PRIMARY SCHOOL",
      "ADDRESS": "30 PASIR RIS STREET 41 CASUARINA PRIMARY SCHOOL SINGAPORE 518935",
      "POSTAL": "518935",
      "X": "41766.4977676729",
      "Y": "39385.5958609674",
      "LATITUDE": "1.37246063927999",
      "LONGITUDE": "103.957020286115",
      "LONGTITUDE": "103.957020286115"
  },
  {
      "SEARCHVAL": "CEDAR PRIMARY SCHOOL",
      "BLK_NO": "15",
      "ROAD_NAME": "CEDAR AVENUE",
      "BUILDING": "CEDAR PRIMARY SCHOOL",
      "ADDRESS": "15 CEDAR AVENUE CEDAR PRIMARY SCHOOL SINGAPORE 349700",
      "POSTAL": "349700",
      "X": "32707.8191135684",
      "Y": "35308.1476785857",
      "LATITUDE": "1.3355885014312",
      "LONGITUDE": "103.87562104944",
      "LONGTITUDE": "103.87562104944"
  },
  {
      "SEARCHVAL": "CHANGKAT PRIMARY SCHOOL",
      "BLK_NO": "11",
      "ROAD_NAME": "SIMEI STREET 3",
      "BUILDING": "CHANGKAT PRIMARY SCHOOL",
      "ADDRESS": "11 SIMEI STREET 3 CHANGKAT PRIMARY SCHOOL SINGAPORE 529896",
      "POSTAL": "529896",
      "X": "41216.8906296864",
      "Y": "35821.8419446945",
      "LATITUDE": "1.34023163951633",
      "LONGITUDE": "103.952080114035",
      "LONGTITUDE": "103.952080114035"
  },
  {
      "SEARCHVAL": "CHONGZHENG PRIMARY SCHOOL",
      "BLK_NO": "1",
      "ROAD_NAME": "TAMPINES STREET 21",
      "BUILDING": "CHONGZHENG PRIMARY SCHOOL",
      "ADDRESS": "1 TAMPINES STREET 21 CHONGZHENG PRIMARY SCHOOL SINGAPORE 529392",
      "POSTAL": "529392",
      "X": "41141.094059418",
      "Y": "36980.1959562805",
      "LATITUDE": "1.35070739237744",
      "LONGITUDE": "103.951399541868",
      "LONGTITUDE": "103.951399541868"
  },
  {
      "SEARCHVAL": "CHUA CHU KANG PRIMARY SCHOOL",
      "BLK_NO": "20",
      "ROAD_NAME": "CHOA CHU KANG AVENUE 2",
      "BUILDING": "CHUA CHU KANG PRIMARY SCHOOL",
      "ADDRESS": "20 CHOA CHU KANG AVENUE 2 CHUA CHU KANG PRIMARY SCHOOL SINGAPORE 689905",
      "POSTAL": "689905",
      "X": "17818.7829598142",
      "Y": "39971.2903354876",
      "LATITUDE": "1.37775890093367",
      "LONGITUDE": "103.741832917421",
      "LONGTITUDE": "103.741832917421"
  },
  {
      "SEARCHVAL": "CLEMENTI PRIMARY SCHOOL",
      "BLK_NO": "8",
      "ROAD_NAME": "CLEMENTI AVENUE 3",
      "BUILDING": "CLEMENTI PRIMARY SCHOOL",
      "ADDRESS": "8 CLEMENTI AVENUE 3 CLEMENTI PRIMARY SCHOOL SINGAPORE 129903",
      "POSTAL": "129903",
      "X": "20190.2983410172",
      "Y": "33038.6364921555",
      "LATITUDE": "1.31506321827875",
      "LONGITUDE": "103.763144493687",
      "LONGTITUDE": "103.763144493687"
  },
  {
      "SEARCHVAL": "COMMIT LEARNING SCHOOLHOUSE @ CATHOLIC HIGH SCHOOL (PRIMARY)",
      "BLK_NO": "9",
      "ROAD_NAME": "BISHAN STREET 22",
      "BUILDING": "COMMIT LEARNING SCHOOLHOUSE @ CATHOLIC HIGH SCHOOL (PRIMARY)",
      "ADDRESS": "9 BISHAN STREET 22 COMMIT LEARNING SCHOOLHOUSE @ CATHOLIC HIGH SCHOOL (PRIMARY) SINGAPORE 579767",
      "POSTAL": "579767",
      "X": "29212.1656484166",
      "Y": "37386.9490167908",
      "LATITUDE": "1.35438878373608",
      "LONGITUDE": "103.844210670766",
      "LONGTITUDE": "103.844210670766"
  },
  {
      "SEARCHVAL": "COMMIT LEARNING SCHOOLHOUSE @ FAIRFIELD METHODIST SCHOOL (PRIMARY)",
      "BLK_NO": "100",
      "ROAD_NAME": "DOVER ROAD",
      "BUILDING": "COMMIT LEARNING SCHOOLHOUSE @ FAIRFIELD METHODIST SCHOOL (PRIMARY)",
      "ADDRESS": "100 DOVER ROAD COMMIT LEARNING SCHOOLHOUSE @ FAIRFIELD METHODIST SCHOOL (PRIMARY) SINGAPORE 139648",
      "POSTAL": "139648",
      "X": "22673.2819890725",
      "Y": "31484.0275675338",
      "LATITUDE": "1.30100441916733",
      "LONGITUDE": "103.785455606827",
      "LONGTITUDE": "103.785455606827"
  },
  {
      "SEARCHVAL": "COMMIT LEARNING SCHOOLHOUSE @ GONGSHANG PRIMARY SCHOOL",
      "BLK_NO": "1",
      "ROAD_NAME": "TAMPINES STREET 42",
      "BUILDING": "COMMIT LEARNING SCHOOLHOUSE @ GONGSHANG PRIMARY SCHOOL",
      "ADDRESS": "1 TAMPINES STREET 42 COMMIT LEARNING SCHOOLHOUSE @ GONGSHANG PRIMARY SCHOOL SINGAPORE 529176",
      "POSTAL": "529176",
      "X": "40890.1319455709",
      "Y": "37688.8239677399",
      "LATITUDE": "1.35711606790292",
      "LONGITUDE": "103.949144797277",
      "LONGTITUDE": "103.949144797277"
  },
  {
      "SEARCHVAL": "COMMIT LEARNING SCHOOLHOUSE @ PEIYING PRIMARY SCHOOL",
      "BLK_NO": "651",
      "ROAD_NAME": "YISHUN RING ROAD",
      "BUILDING": "COMMIT LEARNING SCHOOLHOUSE @ PEIYING PRIMARY SCHOOL",
      "ADDRESS": "651 YISHUN RING ROAD COMMIT LEARNING SCHOOLHOUSE @ PEIYING PRIMARY SCHOOL SINGAPORE 768687",
      "POSTAL": "768687",
      "X": "27646.6270154091",
      "Y": "44356.206750067",
      "LATITUDE": "1.41741627551251",
      "LONGITUDE": "103.830143209875",
      "LONGTITUDE": "103.830143209875"
  },
  {
      "SEARCHVAL": "COMMIT LEARNING SCHOOLHOUSE @ WOODGROVE PRIMARY SCHOOL",
      "BLK_NO": "2",
      "ROAD_NAME": "WOODLANDS DRIVE 14",
      "BUILDING": "COMMIT LEARNING SCHOOLHOUSE @ WOODGROVE PRIMARY SCHOOL",
      "ADDRESS": "2 WOODLANDS DRIVE 14 COMMIT LEARNING SCHOOLHOUSE @ WOODGROVE PRIMARY SCHOOL SINGAPORE 738079",
      "POSTAL": "738079",
      "X": "23204.9254116695",
      "Y": "46050.2524968032",
      "LATITUDE": "1.43273620725049",
      "LONGITUDE": "103.79023031392",
      "LONGTITUDE": "103.79023031392"
  },
  {
      "SEARCHVAL": "COMMIT LEARNING SCHOOLHOUSE @ WOODLANDS PRIMARY SCHOOL",
      "BLK_NO": "10",
      "ROAD_NAME": "WOODLANDS DRIVE 50",
      "BUILDING": "COMMIT LEARNING SCHOOLHOUSE @ WOODLANDS PRIMARY SCHOOL",
      "ADDRESS": "10 WOODLANDS DRIVE 50 COMMIT LEARNING SCHOOLHOUSE @ WOODLANDS PRIMARY SCHOOL SINGAPORE 738853",
      "POSTAL": "738853",
      "X": "23378.645416881",
      "Y": "46475.5760247037",
      "LATITUDE": "1.43658270720199",
      "LONGITUDE": "103.791791282236",
      "LONGTITUDE": "103.791791282236"
  },
  {
      "SEARCHVAL": "COMPASSVALE PRIMARY SCHOOL",
      "BLK_NO": "21",
      "ROAD_NAME": "COMPASSVALE STREET",
      "BUILDING": "COMPASSVALE PRIMARY SCHOOL",
      "ADDRESS": "21 COMPASSVALE STREET COMPASSVALE PRIMARY SCHOOL SINGAPORE 545091",
      "POSTAL": "545091",
      "X": "35177.2900137762",
      "Y": "41816.2900234833",
      "LATITUDE": "1.39444529636566",
      "LONGITUDE": "103.897812229905",
      "LONGTITUDE": "103.897812229905"
  },
  {
      "SEARCHVAL": "CONCORD PRIMARY SCHOOL",
      "BLK_NO": "3",
      "ROAD_NAME": "CHOA CHU KANG AVENUE 4",
      "BUILDING": "CONCORD PRIMARY SCHOOL",
      "ADDRESS": "3 CHOA CHU KANG AVENUE 4 CONCORD PRIMARY SCHOOL SINGAPORE 689814",
      "POSTAL": "689814",
      "X": "17194.7500582738",
      "Y": "40220.0161901619",
      "LATITUDE": "1.38000806197242",
      "LONGITUDE": "103.736225440727",
      "LONGTITUDE": "103.736225440727"
  },
  {
      "SEARCHVAL": "CORPORATION PRIMARY SCHOOL",
      "BLK_NO": "31",
      "ROAD_NAME": "JURONG WEST STREET 24",
      "BUILDING": "CORPORATION PRIMARY SCHOOL",
      "ADDRESS": "31 JURONG WEST STREET 24 CORPORATION PRIMARY SCHOOL SINGAPORE 648347",
      "POSTAL": "648347",
      "X": "14008.2263862854",
      "Y": "37012.3505131546",
      "LATITUDE": "1.35099779872539",
      "LONGITUDE": "103.707593724342",
      "LONGTITUDE": "103.707593724342"
  },
  {
      "SEARCHVAL": "DAMAI PRIMARY SCHOOL",
      "BLK_NO": "52",
      "ROAD_NAME": "BEDOK RESERVOIR CRESCENT",
      "BUILDING": "DAMAI PRIMARY SCHOOL",
      "ADDRESS": "52 BEDOK RESERVOIR CRESCENT DAMAI PRIMARY SCHOOL SINGAPORE 479226",
      "POSTAL": "479226",
      "X": "37788.0885467725",
      "Y": "35294.1912929006",
      "LATITUDE": "1.33546106800406",
      "LONGITUDE": "103.921270169613",
      "LONGTITUDE": "103.921270169613"
  },
  {
      "SEARCHVAL": "DAZHONG PRIMARY SCHOOL",
      "BLK_NO": "35",
      "ROAD_NAME": "BUKIT BATOK STREET 31",
      "BUILDING": "DAZHONG PRIMARY SCHOOL",
      "ADDRESS": "35 BUKIT BATOK STREET 31 DAZHONG PRIMARY SCHOOL SINGAPORE 659441",
      "POSTAL": "659441",
      "X": "18557.5702323942",
      "Y": "37916.8722190689",
      "LATITUDE": "1.3591797447277",
      "LONGITUDE": "103.74847210784",
      "LONGTITUDE": "103.74847210784"
  },
  {
      "SEARCHVAL": "EAST SPRING PRIMARY SCHOOL",
      "BLK_NO": "31",
      "ROAD_NAME": "TAMPINES STREET 33",
      "BUILDING": "EAST SPRING PRIMARY SCHOOL",
      "ADDRESS": "31 TAMPINES STREET 33 EAST SPRING PRIMARY SCHOOL SINGAPORE 529258",
      "POSTAL": "529258",
      "X": "42284.8340225685",
      "Y": "37198.8184850682",
      "LATITUDE": "1.35268400746357",
      "LONGITUDE": "103.961676849165",
      "LONGTITUDE": "103.961676849165"
  },
  {
      "SEARCHVAL": "EDGEFIELD PRIMARY SCHOOL",
      "BLK_NO": "41",
      "ROAD_NAME": "EDGEFIELD PLAINS",
      "BUILDING": "EDGEFIELD PRIMARY SCHOOL",
      "ADDRESS": "41 EDGEFIELD PLAINS EDGEFIELD PRIMARY SCHOOL SINGAPORE 828869",
      "POSTAL": "828869",
      "X": "36294.0746121518",
      "Y": "42440.6405269764",
      "LATITUDE": "1.40009139510996",
      "LONGITUDE": "103.907847599114",
      "LONGTITUDE": "103.907847599114"
  },
  {
      "SEARCHVAL": "ELIAS PARK PRIMARY SCHOOL",
      "BLK_NO": "11",
      "ROAD_NAME": "PASIR RIS STREET 52",
      "BUILDING": "ELIAS PARK PRIMARY SCHOOL",
      "ADDRESS": "11 PASIR RIS STREET 52 ELIAS PARK PRIMARY SCHOOL SINGAPORE 518866",
      "POSTAL": "518866",
      "X": "40443.0313903531",
      "Y": "39612.4369040336",
      "LATITUDE": "1.37451269377776",
      "LONGITUDE": "103.945128117139",
      "LONGTITUDE": "103.945128117139"
  },
  {
      "SEARCHVAL": "ENDEAVOUR PRIMARY SCHOOL",
      "BLK_NO": "10",
      "ROAD_NAME": "ADMIRALTY LINK",
      "BUILDING": "ENDEAVOUR PRIMARY SCHOOL",
      "ADDRESS": "10 ADMIRALTY LINK ENDEAVOUR PRIMARY SCHOOL SINGAPORE 757521",
      "POSTAL": "757521",
      "X": "26232.5507349819",
      "Y": "48405.7003912628",
      "LATITUDE": "1.45403837499301",
      "LONGITUDE": "103.817436231731",
      "LONGTITUDE": "103.817436231731"
  },
  {
      "SEARCHVAL": "EUNOS PRIMARY SCHOOL",
      "BLK_NO": "95",
      "ROAD_NAME": "JALAN EUNOS",
      "BUILDING": "EUNOS PRIMARY SCHOOL",
      "ADDRESS": "95 JALAN EUNOS EUNOS PRIMARY SCHOOL SINGAPORE 419529",
      "POSTAL": "419529",
      "X": "35926.3698536828",
      "Y": "34079.4906147029",
      "LATITUDE": "1.32447629876368",
      "LONGITUDE": "103.904541254016",
      "LONGTITUDE": "103.904541254016"
  },
  {
      "SEARCHVAL": "EVERGREEN PRIMARY SCHOOL",
      "BLK_NO": "31",
      "ROAD_NAME": "WOODLANDS CIRCLE",
      "BUILDING": "EVERGREEN PRIMARY SCHOOL",
      "ADDRESS": "31 WOODLANDS CIRCLE EVERGREEN PRIMARY SCHOOL SINGAPORE 738908",
      "POSTAL": "738908",
      "X": "23688.7552570887",
      "Y": "47312.692020528",
      "LATITUDE": "1.44415332824735",
      "LONGITUDE": "103.794577787757",
      "LONGTITUDE": "103.794577787757"
  },
  {
      "SEARCHVAL": "FAIRFIELD METHODIST SCHOOL (PRIMARY)",
      "BLK_NO": "100",
      "ROAD_NAME": "DOVER ROAD",
      "BUILDING": "FAIRFIELD METHODIST SCHOOL (PRIMARY)",
      "ADDRESS": "100 DOVER ROAD FAIRFIELD METHODIST SCHOOL (PRIMARY) SINGAPORE 139648",
      "POSTAL": "139648",
      "X": "22671.3515878748",
      "Y": "31432.7656800412",
      "LATITUDE": "1.30054082453424",
      "LONGITUDE": "103.785438270044",
      "LONGTITUDE": "103.785438270044"
  },
  {
      "SEARCHVAL": "FARRER PARK PRIMARY SCHOOL",
      "BLK_NO": "2",
      "ROAD_NAME": "FARRER PARK ROAD",
      "BUILDING": "FARRER PARK PRIMARY SCHOOL",
      "ADDRESS": "2 FARRER PARK ROAD FARRER PARK PRIMARY SCHOOL SINGAPORE 217567",
      "POSTAL": "217567",
      "X": "29941.7768185176",
      "Y": "32740.5849021059",
      "LATITUDE": "1.31236867681371",
      "LONGITUDE": "103.850766402965",
      "LONGTITUDE": "103.850766402965"
  },
  {
      "SEARCHVAL": "FENGSHAN PRIMARY SCHOOL",
      "BLK_NO": "307",
      "ROAD_NAME": "BEDOK NORTH ROAD",
      "BUILDING": "FENGSHAN PRIMARY SCHOOL",
      "ADDRESS": "307 BEDOK NORTH ROAD FENGSHAN PRIMARY SCHOOL SINGAPORE 469680",
      "POSTAL": "469680",
      "X": "38949.9907227494",
      "Y": "34668.9245775398",
      "LATITUDE": "1.32980598760785",
      "LONGITUDE": "103.931710293058",
      "LONGTITUDE": "103.931710293058"
  },
  {
      "SEARCHVAL": "FERN GREEN PRIMARY SCHOOL",
      "BLK_NO": "70",
      "ROAD_NAME": "FERNVALE LINK",
      "BUILDING": "FERN GREEN PRIMARY SCHOOL",
      "ADDRESS": "70 FERNVALE LINK FERN GREEN PRIMARY SCHOOL SINGAPORE 797538",
      "POSTAL": "797538",
      "X": "33231.7764054528",
      "Y": "42128.5479522273",
      "LATITUDE": "1.39726966050479",
      "LONGITUDE": "103.880330305684",
      "LONGTITUDE": "103.880330305684"
  },
  {
      "SEARCHVAL": "FERNVALE PRIMARY SCHOOL",
      "BLK_NO": "1",
      "ROAD_NAME": "FERNVALE LANE",
      "BUILDING": "FERNVALE PRIMARY SCHOOL",
      "ADDRESS": "1 FERNVALE LANE FERNVALE PRIMARY SCHOOL SINGAPORE 797701",
      "POSTAL": "797701",
      "X": "32576.8849010281",
      "Y": "41358.1178030372",
      "LATITUDE": "1.39030227963797",
      "LONGITUDE": "103.874445458032",
      "LONGTITUDE": "103.874445458032"
  },
  {
      "SEARCHVAL": "FIRST TOA PAYOH PRIMARY SCHOOL",
      "BLK_NO": "7",
      "ROAD_NAME": "LORONG 8 TOA PAYOH",
      "BUILDING": "FIRST TOA PAYOH PRIMARY SCHOOL",
      "ADDRESS": "7 LORONG 8 TOA PAYOH FIRST TOA PAYOH PRIMARY SCHOOL SINGAPORE 319252",
      "POSTAL": "319252",
      "X": "30471.8817195026",
      "Y": "35831.634454662",
      "LATITUDE": "1.34032299499938",
      "LONGITUDE": "103.855529906182",
      "LONGTITUDE": "103.855529906182"
  },
  {
      "SEARCHVAL": "FRONTIER PRIMARY SCHOOL",
      "BLK_NO": "20",
      "ROAD_NAME": "JURONG WEST STREET 61",
      "BUILDING": "FRONTIER PRIMARY SCHOOL",
      "ADDRESS": "20 JURONG WEST STREET 61 FRONTIER PRIMARY SCHOOL SINGAPORE 648200",
      "POSTAL": "648200",
      "X": "13129.8467444237",
      "Y": "35399.679120725",
      "LATITUDE": "1.33641298743234",
      "LONGITUDE": "103.69970173931",
      "LONGTITUDE": "103.69970173931"
  },
  {
      "SEARCHVAL": "FUCHUN PRIMARY SCHOOL",
      "BLK_NO": "23",
      "ROAD_NAME": "WOODLANDS AVENUE 1",
      "BUILDING": "FUCHUN PRIMARY SCHOOL",
      "ADDRESS": "23 WOODLANDS AVENUE 1 FUCHUN PRIMARY SCHOOL SINGAPORE 739063",
      "POSTAL": "739063",
      "X": "21865.3411816815",
      "Y": "45800.7908879817",
      "LATITUDE": "1.43047990810126",
      "LONGITUDE": "103.778192944298",
      "LONGTITUDE": "103.778192944298"
  },
  {
      "SEARCHVAL": "FUHUA PRIMARY SCHOOL",
      "BLK_NO": "65",
      "ROAD_NAME": "JURONG EAST STREET 13",
      "BUILDING": "FUHUA PRIMARY SCHOOL",
      "ADDRESS": "65 JURONG EAST STREET 13 FUHUA PRIMARY SCHOOL SINGAPORE 609647",
      "POSTAL": "609647",
      "X": "17181.0134181511",
      "Y": "35409.5467255618",
      "LATITUDE": "1.33650394789627",
      "LONGITUDE": "103.736103745748",
      "LONGTITUDE": "103.736103745748"
  },
  {
      "SEARCHVAL": "GAN ENG SENG PRIMARY SCHOOL",
      "BLK_NO": "100",
      "ROAD_NAME": "REDHILL CLOSE",
      "BUILDING": "GAN ENG SENG PRIMARY SCHOOL",
      "ADDRESS": "100 REDHILL CLOSE GAN ENG SENG PRIMARY SCHOOL SINGAPORE 158901",
      "POSTAL": "158901",
      "X": "26022.2170935348",
      "Y": "29780.10807156",
      "LATITUDE": "1.28559516494962",
      "LONGITUDE": "103.815547410064",
      "LONGTITUDE": "103.815547410064"
  },
  {
      "SEARCHVAL": "GEYLANG METHODIST SCHOOL (PRIMARY)",
      "BLK_NO": "4",
      "ROAD_NAME": "GEYLANG EAST CENTRAL",
      "BUILDING": "GEYLANG METHODIST SCHOOL (PRIMARY)",
      "ADDRESS": "4 GEYLANG EAST CENTRAL GEYLANG METHODIST SCHOOL (PRIMARY) SINGAPORE 389706",
      "POSTAL": "389706",
      "X": "33623.1818729434",
      "Y": "33318.1223668903",
      "LATITUDE": "1.31759126757284",
      "LONGITUDE": "103.883845744916",
      "LONGTITUDE": "103.883845744916"
  },
  {
      "SEARCHVAL": "GONGSHANG PRIMARY SCHOOL",
      "BLK_NO": "1",
      "ROAD_NAME": "TAMPINES STREET 42",
      "BUILDING": "GONGSHANG PRIMARY SCHOOL",
      "ADDRESS": "1 TAMPINES STREET 42 GONGSHANG PRIMARY SCHOOL SINGAPORE 529176",
      "POSTAL": "529176",
      "X": "40886.8508355999",
      "Y": "37702.2195482217",
      "LATITUDE": "1.35723721393297",
      "LONGITUDE": "103.949115320172",
      "LONGTITUDE": "103.949115320172"
  },
  {
      "SEARCHVAL": "GREENDALE PRIMARY SCHOOL",
      "BLK_NO": "50",
      "ROAD_NAME": "EDGEDALE PLAINS",
      "BUILDING": "GREENDALE PRIMARY SCHOOL",
      "ADDRESS": "50 EDGEDALE PLAINS GREENDALE PRIMARY SCHOOL SINGAPORE 828848",
      "POSTAL": "828848",
      "X": "36793.4333255449",
      "Y": "42041.5424514245",
      "LATITUDE": "1.39648195114256",
      "LONGITUDE": "103.91233462071",
      "LONGTITUDE": "103.91233462071"
  },
  {
      "SEARCHVAL": "GREENRIDGE PRIMARY SCHOOL",
      "BLK_NO": "11",
      "ROAD_NAME": "JELAPANG ROAD",
      "BUILDING": "GREENRIDGE PRIMARY SCHOOL",
      "ADDRESS": "11 JELAPANG ROAD GREENRIDGE PRIMARY SCHOOL SINGAPORE 677744",
      "POSTAL": "677744",
      "X": "20708.0073222192",
      "Y": "40870.2050487585",
      "LATITUDE": "1.3858892193692",
      "LONGITUDE": "103.767794469258",
      "LONGTITUDE": "103.767794469258"
  },
  {
      "SEARCHVAL": "GREENWOOD PRIMARY SCHOOL",
      "BLK_NO": "11",
      "ROAD_NAME": "WOODLANDS DRIVE 62",
      "BUILDING": "GREENWOOD PRIMARY SCHOOL",
      "ADDRESS": "11 WOODLANDS DRIVE 62 GREENWOOD PRIMARY SCHOOL SINGAPORE 737942",
      "POSTAL": "737942",
      "X": "24818.0410170276",
      "Y": "46842.3174743224",
      "LATITUDE": "1.43989958331782",
      "LONGITUDE": "103.804725587384",
      "LONGTITUDE": "103.804725587384"
  },
  {
      "SEARCHVAL": "GUANGYANG PRIMARY SCHOOL",
      "BLK_NO": "6",
      "ROAD_NAME": "BISHAN STREET 12",
      "BUILDING": "GUANGYANG PRIMARY SCHOOL",
      "ADDRESS": "6 BISHAN STREET 12 GUANGYANG PRIMARY SCHOOL SINGAPORE 579806",
      "POSTAL": "579806",
      "X": "29795.6102129035",
      "Y": "36425.0979033671",
      "LATITUDE": "1.34569011530238",
      "LONGITUDE": "103.849453239895",
      "LONGTITUDE": "103.849453239895"
  },
  {
      "SEARCHVAL": "HENRY PARK PRIMARY SCHOOL",
      "BLK_NO": "1",
      "ROAD_NAME": "HOLLAND GROVE ROAD",
      "BUILDING": "HENRY PARK PRIMARY SCHOOL",
      "ADDRESS": "1 HOLLAND GROVE ROAD HENRY PARK PRIMARY SCHOOL SINGAPORE 278790",
      "POSTAL": "278790",
      "X": "22544.2873791968",
      "Y": "33216.9645254761",
      "LATITUDE": "1.31667646178347",
      "LONGITUDE": "103.784296227747",
      "LONGTITUDE": "103.784296227747"
  },
  {
      "SEARCHVAL": "HOLY INNOCENTS' PRIMARY SCHOOL",
      "BLK_NO": "5",
      "ROAD_NAME": "LORONG LOW KOON",
      "BUILDING": "HOLY INNOCENTS' PRIMARY SCHOOL",
      "ADDRESS": "5 LORONG LOW KOON HOLY INNOCENTS' PRIMARY SCHOOL SINGAPORE 536451",
      "POSTAL": "536451",
      "X": "34765.9036816582",
      "Y": "38774.6943912152",
      "LATITUDE": "1.36693830877349",
      "LONGITUDE": "103.894114899795",
      "LONGTITUDE": "103.894114899795"
  },
  {
      "SEARCHVAL": "HORIZON PRIMARY SCHOOL",
      "BLK_NO": "61",
      "ROAD_NAME": "EDGEDALE PLAINS",
      "BUILDING": "HORIZON PRIMARY SCHOOL",
      "ADDRESS": "61 EDGEDALE PLAINS HORIZON PRIMARY SCHOOL SINGAPORE 828819",
      "POSTAL": "828819",
      "X": "36912.5247354358",
      "Y": "42380.7999361996",
      "LATITUDE": "1.399550034492",
      "LONGITUDE": "103.913404855665",
      "LONGTITUDE": "103.913404855665"
  },
  {
      "SEARCHVAL": "HOUGANG PRIMARY SCHOOL",
      "BLK_NO": "1",
      "ROAD_NAME": "HOUGANG STREET 93",
      "BUILDING": "HOUGANG PRIMARY SCHOOL",
      "ADDRESS": "1 HOUGANG STREET 93 HOUGANG PRIMARY SCHOOL SINGAPORE 534238",
      "POSTAL": "534238",
      "X": "33284.6782123018",
      "Y": "39929.5216681417",
      "LATITUDE": "1.37738245231461",
      "LONGITUDE": "103.880805274557",
      "LONGTITUDE": "103.880805274557"
  },
  {
      "SEARCHVAL": "HUAMIN PRIMARY SCHOOL",
      "BLK_NO": "21",
      "ROAD_NAME": "YISHUN AVENUE 11",
      "BUILDING": "HUAMIN PRIMARY SCHOOL",
      "ADDRESS": "21 YISHUN AVENUE 11 HUAMIN PRIMARY SCHOOL SINGAPORE 768857",
      "POSTAL": "768857",
      "X": "29215.4177919272",
      "Y": "45412.9266837817",
      "LATITUDE": "1.42697284512936",
      "LONGITUDE": "103.844240226564",
      "LONGTITUDE": "103.844240226564"
  },
  {
      "SEARCHVAL": "INNOVA PRIMARY SCHOOL",
      "BLK_NO": "80",
      "ROAD_NAME": "WOODLANDS DRIVE 17",
      "BUILDING": "INNOVA PRIMARY SCHOOL",
      "ADDRESS": "80 WOODLANDS DRIVE 17 INNOVA PRIMARY SCHOOL SINGAPORE 737888",
      "POSTAL": "737888",
      "X": "23246.8971469188",
      "Y": "45633.4723797198",
      "LATITUDE": "1.42896700684852",
      "LONGITUDE": "103.790607539185",
      "LONGTITUDE": "103.790607539185"
  },
  {
      "SEARCHVAL": "JIEMIN PRIMARY SCHOOL",
      "BLK_NO": "2",
      "ROAD_NAME": "YISHUN STREET 71",
      "BUILDING": "JIEMIN PRIMARY SCHOOL",
      "ADDRESS": "2 YISHUN STREET 71 JIEMIN PRIMARY SCHOOL SINGAPORE 768515",
      "POSTAL": "768515",
      "X": "27678.0421859771",
      "Y": "45492.0549418237",
      "LATITUDE": "1.42768847665227",
      "LONGITUDE": "103.830425490093",
      "LONGTITUDE": "103.830425490093"
  },
  {
      "SEARCHVAL": "JING SHAN PRIMARY SCHOOL",
      "BLK_NO": "5",
      "ROAD_NAME": "ANG MO KIO STREET 52",
      "BUILDING": "JING SHAN PRIMARY SCHOOL",
      "ADDRESS": "5 ANG MO KIO STREET 52 JING SHAN PRIMARY SCHOOL SINGAPORE 569228",
      "POSTAL": "569228",
      "X": "30093.7277568905",
      "Y": "39360.0670565329",
      "LATITUDE": "1.37223290983498",
      "LONGITUDE": "103.852132214306",
      "LONGTITUDE": "103.852132214306"
  },
  {
      "SEARCHVAL": "JUNYUAN PRIMARY SCHOOL",
      "BLK_NO": "2",
      "ROAD_NAME": "TAMPINES STREET 91",
      "BUILDING": "JUNYUAN PRIMARY SCHOOL",
      "ADDRESS": "2 TAMPINES STREET 91 JUNYUAN PRIMARY SCHOOL SINGAPORE 528906",
      "POSTAL": "528906",
      "X": "39785.8491141181",
      "Y": "36666.4713015798",
      "LATITUDE": "1.34787074766746",
      "LONGITUDE": "103.939221709073",
      "LONGTITUDE": "103.939221709073"
  },
  {
      "SEARCHVAL": "JURONG PRIMARY SCHOOL",
      "BLK_NO": "320",
      "ROAD_NAME": "JURONG EAST STREET 32",
      "BUILDING": "JURONG PRIMARY SCHOOL",
      "ADDRESS": "320 JURONG EAST STREET 32 JURONG PRIMARY SCHOOL SINGAPORE 609476",
      "POSTAL": "609476",
      "X": "16853.0771883978",
      "Y": "36729.2343872562",
      "LATITUDE": "1.34843859698946",
      "LONGITUDE": "103.733156566858",
      "LONGTITUDE": "103.733156566858"
  },
  {
      "SEARCHVAL": "JURONG WEST PRIMARY SCHOOL",
      "BLK_NO": "30",
      "ROAD_NAME": "JURONG WEST STREET 61",
      "BUILDING": "JURONG WEST PRIMARY SCHOOL",
      "ADDRESS": "30 JURONG WEST STREET 61 JURONG WEST PRIMARY SCHOOL SINGAPORE 648368",
      "POSTAL": "648368",
      "X": "13029.9245329089",
      "Y": "35705.1165225543",
      "LATITUDE": "1.33917519796104",
      "LONGITUDE": "103.698803732244",
      "LONGTITUDE": "103.698803732244"
  },
  {
      "SEARCHVAL": "KEMING PRIMARY SCHOOL",
      "BLK_NO": "90",
      "ROAD_NAME": "BUKIT BATOK EAST AVENUE 6",
      "BUILDING": "KEMING PRIMARY SCHOOL",
      "ADDRESS": "90 BUKIT BATOK EAST AVENUE 6 KEMING PRIMARY SCHOOL SINGAPORE 659762",
      "POSTAL": "659762",
      "X": "19445.3031655131",
      "Y": "36407.3561431039",
      "LATITUDE": "1.34552849960874",
      "LONGITUDE": "103.756449399351",
      "LONGTITUDE": "103.756449399351"
  },
  {
      "SEARCHVAL": "KNOWLEDGE PARK EDUCARE PTE LTD (KEMING PRIMARY SCHOOL)",
      "BLK_NO": "90",
      "ROAD_NAME": "BUKIT BATOK EAST AVENUE 6",
      "BUILDING": "KNOWLEDGE PARK EDUCARE PTE LTD (KEMING PRIMARY SCHOOL)",
      "ADDRESS": "90 BUKIT BATOK EAST AVENUE 6 KNOWLEDGE PARK EDUCARE PTE LTD (KEMING PRIMARY SCHOOL) SINGAPORE 659762",
      "POSTAL": "659762",
      "X": "19386.7443935787",
      "Y": "36355.9404942542",
      "LATITUDE": "1.34506349843091",
      "LONGITUDE": "103.75592322797",
      "LONGTITUDE": "103.75592322797"
  },
  {
      "SEARCHVAL": "KNOWLEDGE PARK EDUCARE PTE LTD (PUNGGOL COVE PRIMARY SCHOOL)",
      "BLK_NO": "52",
      "ROAD_NAME": "SUMANG WALK",
      "BUILDING": "KNOWLEDGE PARK EDUCARE PTE LTD (PUNGGOL COVE PRIMARY SCHOOL)",
      "ADDRESS": "52 SUMANG WALK KNOWLEDGE PARK EDUCARE PTE LTD (PUNGGOL COVE PRIMARY SCHOOL) SINGAPORE 828674",
      "POSTAL": "828674",
      "X": "35298.7904222226",
      "Y": "43711.4672181848",
      "LATITUDE": "1.41158455562454",
      "LONGITUDE": "103.89890448429",
      "LONGTITUDE": "103.89890448429"
  },
  {
      "SEARCHVAL": "KNOWLEDGE PARK EDUCARE PTE LTE (OPERA ESTATE PRIMARY SCHOOL)",
      "BLK_NO": "48",
      "ROAD_NAME": "FIDELIO STREET",
      "BUILDING": "KNOWLEDGE PARK EDUCARE PTE LTE (OPERA ESTATE PRIMARY SCHOOL)",
      "ADDRESS": "48 FIDELIO STREET KNOWLEDGE PARK EDUCARE PTE LTE (OPERA ESTATE PRIMARY SCHOOL) SINGAPORE 458436",
      "POSTAL": "458436",
      "X": "38064.4274895079",
      "Y": "33581.1396132912",
      "LATITUDE": "1.31996876377748",
      "LONGITUDE": "103.923752668632",
      "LONGTITUDE": "103.923752668632"
  },
  {
      "SEARCHVAL": "KRANJI PRIMARY SCHOOL",
      "BLK_NO": "11",
      "ROAD_NAME": "CHOA CHU KANG STREET 54",
      "BUILDING": "KRANJI PRIMARY SCHOOL",
      "ADDRESS": "11 CHOA CHU KANG STREET 54 KRANJI PRIMARY SCHOOL SINGAPORE 689189",
      "POSTAL": "689189",
      "X": "18434.245239621",
      "Y": "41718.5305804759",
      "LATITUDE": "1.39356050497104",
      "LONGITUDE": "103.747362720939",
      "LONGTITUDE": "103.747362720939"
  },
  {
      "SEARCHVAL": "KUO CHUAN PRESBYTERIAN PRIMARY SCHOOL",
      "BLK_NO": "8B",
      "ROAD_NAME": "BISHAN STREET 13",
      "BUILDING": "KUO CHUAN PRESBYTERIAN PRIMARY SCHOOL",
      "ADDRESS": "8B BISHAN STREET 13 KUO CHUAN PRESBYTERIAN PRIMARY SCHOOL SINGAPORE 579802",
      "POSTAL": "579802",
      "X": "30360.5145779848",
      "Y": "36877.5882179104",
      "LATITUDE": "1.34978223750981",
      "LONGITUDE": "103.85452928785",
      "LONGTITUDE": "103.85452928785"
  },
  {
      "SEARCHVAL": "KUO CHUAN PRESBYTERIAN PRIMARY SCHOOL",
      "BLK_NO": "8",
      "ROAD_NAME": "BISHAN STREET 13",
      "BUILDING": "KUO CHUAN PRESBYTERIAN PRIMARY SCHOOL",
      "ADDRESS": "8 BISHAN STREET 13 KUO CHUAN PRESBYTERIAN PRIMARY SCHOOL SINGAPORE 579793",
      "POSTAL": "579793",
      "X": "30414.9291181238",
      "Y": "36835.1167885177",
      "LATITUDE": "1.34939813669536",
      "LONGITUDE": "103.855018233311",
      "LONGTITUDE": "103.855018233311"
  },
  {
      "SEARCHVAL": "KUO CHUAN PRESBYTERIAN PRIMARY SCHOOL (U/C)",
      "BLK_NO": "8",
      "ROAD_NAME": "BISHAN STREET 13",
      "BUILDING": "KUO CHUAN PRESBYTERIAN PRIMARY SCHOOL (U/C)",
      "ADDRESS": "8 BISHAN STREET 13 KUO CHUAN PRESBYTERIAN PRIMARY SCHOOL (U/C) SINGAPORE 579793",
      "POSTAL": "579793",
      "X": "30335.0289356941",
      "Y": "36825.3860857729",
      "LATITUDE": "1.34931014201944",
      "LONGITUDE": "103.854300279284",
      "LONGTITUDE": "103.854300279284"
  },
  {
      "SEARCHVAL": "LAKESIDE PRIMARY SCHOOL",
      "BLK_NO": "161",
      "ROAD_NAME": "CORPORATION WALK",
      "BUILDING": "LAKESIDE PRIMARY SCHOOL",
      "ADDRESS": "161 CORPORATION WALK LAKESIDE PRIMARY SCHOOL SINGAPORE 618310",
      "POSTAL": "618310",
      "X": "15176.2291954523",
      "Y": "35597.6143301465",
      "LATITUDE": "1.33820397704287",
      "LONGITUDE": "103.718089546664",
      "LONGTITUDE": "103.718089546664"
  },
  {
      "SEARCHVAL": "LEARNING LEAP PTE LTD (FRONTIER PRIMARY SCHOOL)",
      "BLK_NO": "20",
      "ROAD_NAME": "JURONG WEST STREET 61",
      "BUILDING": "LEARNING LEAP PTE LTD (FRONTIER PRIMARY SCHOOL)",
      "ADDRESS": "20 JURONG WEST STREET 61 LEARNING LEAP PTE LTD (FRONTIER PRIMARY SCHOOL) SINGAPORE 648200",
      "POSTAL": "648200",
      "X": "13127.742393123",
      "Y": "35425.1252935641",
      "LATITUDE": "1.3366431119298",
      "LONGITUDE": "103.699682818103",
      "LONGTITUDE": "103.699682818103"
  },
  {
      "SEARCHVAL": "LEARNING LEAP PTE LTD (PEI TONG PRIMARY SCHOOL)",
      "BLK_NO": "15",
      "ROAD_NAME": "CLEMENTI AVENUE 5",
      "BUILDING": "LEARNING LEAP PTE LTD (PEI TONG PRIMARY SCHOOL)",
      "ADDRESS": "15 CLEMENTI AVENUE 5 LEARNING LEAP PTE LTD (PEI TONG PRIMARY SCHOOL) SINGAPORE 129857",
      "POSTAL": "129857",
      "X": "20668.2404885115",
      "Y": "33215.772784153",
      "LATITUDE": "1.31666529308968",
      "LONGITUDE": "103.767438999533",
      "LONGTITUDE": "103.767438999533"
  },
  {
      "SEARCHVAL": "LEARNING LEAP PTE LTD (PUNGGOL GREEN PRIMARY SCHOOL)",
      "BLK_NO": "98",
      "ROAD_NAME": "PUNGGOL WALK",
      "BUILDING": "LEARNING LEAP PTE LTD (PUNGGOL GREEN PRIMARY SCHOOL)",
      "ADDRESS": "98 PUNGGOL WALK LEARNING LEAP PTE LTD (PUNGGOL GREEN PRIMARY SCHOOL) SINGAPORE 828772",
      "POSTAL": "828772",
      "X": "35286.5548319491",
      "Y": "42621.3463525623",
      "LATITUDE": "1.40172590450528",
      "LONGITUDE": "103.898794262307",
      "LONGTITUDE": "103.898794262307"
  },
  {
      "SEARCHVAL": "LEARNING LEAP PTE LTD (WHITE SANDS PRIMARY SCHOOL)",
      "BLK_NO": "2",
      "ROAD_NAME": "PASIR RIS STREET 11",
      "BUILDING": "LEARNING LEAP PTE LTD (WHITE SANDS PRIMARY SCHOOL)",
      "ADDRESS": "2 PASIR RIS STREET 11 LEARNING LEAP PTE LTD (WHITE SANDS PRIMARY SCHOOL) SINGAPORE 519075",
      "POSTAL": "519075",
      "X": "42194.0540739279",
      "Y": "38630.9946565423",
      "LATITUDE": "1.36563610941695",
      "LONGITUDE": "103.960861814678",
      "LONGTITUDE": "103.960861814678"
  },
  {
      "SEARCHVAL": "LEARNING LEAP PTE LTD [ANGSANA PRIMARY SCHOOL]",
      "BLK_NO": "3",
      "ROAD_NAME": "TAMPINES STREET 22",
      "BUILDING": "LEARNING LEAP PTE LTD [ANGSANA PRIMARY SCHOOL]",
      "ADDRESS": "3 TAMPINES STREET 22 LEARNING LEAP PTE LTD [ANGSANA PRIMARY SCHOOL] SINGAPORE 529366",
      "POSTAL": "529366",
      "X": "41160.8615044914",
      "Y": "36732.3202990014",
      "LATITUDE": "1.34846568919477",
      "LONGITUDE": "103.951577056231",
      "LONGTITUDE": "103.951577056231"
  },
  {
      "SEARCHVAL": "LEARNING STUDIO BY ZENITANT (ZHONGHUA PRIMARY SCHOOL)",
      "BLK_NO": "12",
      "ROAD_NAME": "SERANGOON AVENUE 4",
      "BUILDING": "LEARNING STUDIO BY ZENITANT (ZHONGHUA PRIMARY SCHOOL)",
      "ADDRESS": "12 SERANGOON AVENUE 4 LEARNING STUDIO BY ZENITANT (ZHONGHUA PRIMARY SCHOOL) SINGAPORE 556095",
      "POSTAL": "556095",
      "X": "32050.2209249679",
      "Y": "38036.2660969216",
      "LATITUDE": "1.36026072476019",
      "LONGITUDE": "103.869712517383",
      "LONGTITUDE": "103.869712517383"
  },
  {
      "SEARCHVAL": "LEARNING STUDIO EDUCARE @ CHANGKAT PRIMARY SCHOOL",
      "BLK_NO": "11",
      "ROAD_NAME": "SIMEI STREET 3",
      "BUILDING": "LEARNING STUDIO EDUCARE @ CHANGKAT PRIMARY SCHOOL",
      "ADDRESS": "11 SIMEI STREET 3 LEARNING STUDIO EDUCARE @ CHANGKAT PRIMARY SCHOOL SINGAPORE 529896",
      "POSTAL": "529896",
      "X": "41238.4638929376",
      "Y": "35793.2822557092",
      "LATITUDE": "1.33997334692002",
      "LONGITUDE": "103.952273949753",
      "LONGTITUDE": "103.952273949753"
  },
  {
      "SEARCHVAL": "LIANHUA PRIMARY SCHOOL",
      "BLK_NO": "2",
      "ROAD_NAME": "BUKIT BATOK STREET 52",
      "BUILDING": "LIANHUA PRIMARY SCHOOL",
      "ADDRESS": "2 BUKIT BATOK STREET 52 LIANHUA PRIMARY SCHOOL SINGAPORE 659243",
      "POSTAL": "659243",
      "X": "19191.1979939695",
      "Y": "37370.8497486636",
      "LATITUDE": "1.35424191127295",
      "LONGITUDE": "103.754165828711",
      "LONGTITUDE": "103.754165828711"
  },
  {
      "SEARCHVAL": "MARSILING PRIMARY SCHOOL",
      "BLK_NO": "31",
      "ROAD_NAME": "WOODLANDS CENTRE ROAD",
      "BUILDING": "MARSILING PRIMARY SCHOOL",
      "ADDRESS": "31 WOODLANDS CENTRE ROAD MARSILING PRIMARY SCHOOL SINGAPORE 738927",
      "POSTAL": "738927",
      "X": "21359.011448958",
      "Y": "46172.2397052329",
      "LATITUDE": "1.43383904037059",
      "LONGITUDE": "103.773643013846",
      "LONGTITUDE": "103.773643013846"
  },
  {
      "SEARCHVAL": "MAYFLOWER PRIMARY SCHOOL (JAN 2019 - DEC 2021)",
      "BLK_NO": "6",
      "ROAD_NAME": "ANG MO KIO AVENUE 2",
      "BUILDING": "MAYFLOWER PRIMARY SCHOOL (JAN 2019 - DEC 2021)",
      "ADDRESS": "6 ANG MO KIO AVENUE 2 MAYFLOWER PRIMARY SCHOOL (JAN 2019 - DEC 2021) SINGAPORE 569948",
      "POSTAL": "569948",
      "X": "28276.7353066411",
      "Y": "39792.7725521773",
      "LATITUDE": "1.37614621670476",
      "LONGITUDE": "103.835805246743",
      "LONGTITUDE": "103.835805246743"
  },
  {
      "SEARCHVAL": "MAYFLOWER PRIMARY SCHOOL (U/C)",
      "BLK_NO": "200",
      "ROAD_NAME": "ANG MO KIO AVENUE 5",
      "BUILDING": "MAYFLOWER PRIMARY SCHOOL (U/C)",
      "ADDRESS": "200 ANG MO KIO AVENUE 5 MAYFLOWER PRIMARY SCHOOL (U/C) SINGAPORE 569878",
      "POSTAL": "569878",
      "X": "29105.5559377754",
      "Y": "39818.2753564138",
      "LATITUDE": "1.37637683547682",
      "LONGITUDE": "103.843252803742",
      "LONGTITUDE": "103.843252803742"
  },
  {
      "SEARCHVAL": "MERCU STUDENT CARE CENTRE @ RIVERSIDE PRIMARY SCHOOL",
      "BLK_NO": "110",
      "ROAD_NAME": "WOODLANDS CRESCENT",
      "BUILDING": "MERCU STUDENT CARE CENTRE @ RIVERSIDE PRIMARY SCHOOL",
      "ADDRESS": "110 WOODLANDS CRESCENT MERCU STUDENT CARE CENTRE @ RIVERSIDE PRIMARY SCHOOL SINGAPORE 737803",
      "POSTAL": "737803",
      "X": "24502.3868994378",
      "Y": "47627.9217809848",
      "LATITUDE": "1.44700426493785",
      "LONGITUDE": "103.801889031334",
      "LONGTITUDE": "103.801889031334"
  },
  {
      "SEARCHVAL": "MERIDIAN PRIMARY SCHOOL",
      "BLK_NO": "20",
      "ROAD_NAME": "PASIR RIS STREET 71",
      "BUILDING": "MERIDIAN PRIMARY SCHOOL",
      "ADDRESS": "20 PASIR RIS STREET 71 MERIDIAN PRIMARY SCHOOL SINGAPORE 518798",
      "POSTAL": "518798",
      "X": "39303.5458344575",
      "Y": "39724.6885971073",
      "LATITUDE": "1.37552831658484",
      "LONGITUDE": "103.934889078518",
      "LONGTITUDE": "103.934889078518"
  },
  {
      "SEARCHVAL": "NAN CHIAU PRIMARY SCHOOL",
      "BLK_NO": "50",
      "ROAD_NAME": "ANCHORVALE LINK",
      "BUILDING": "NAN CHIAU PRIMARY SCHOOL",
      "ADDRESS": "50 ANCHORVALE LINK NAN CHIAU PRIMARY SCHOOL SINGAPORE 545080",
      "POSTAL": "545080",
      "X": "34439.3196740765",
      "Y": "41569.2687405795",
      "LATITUDE": "1.39221149906592",
      "LONGITUDE": "103.891180928186",
      "LONGTITUDE": "103.891180928186"
  },
  {
      "SEARCHVAL": "NAN HUA PRIMARY SCHOOL",
      "BLK_NO": "30",
      "ROAD_NAME": "JALAN LEMPENG",
      "BUILDING": "NAN HUA PRIMARY SCHOOL",
      "ADDRESS": "30 JALAN LEMPENG NAN HUA PRIMARY SCHOOL SINGAPORE 128806",
      "POSTAL": "128806",
      "X": "19962.2298404071",
      "Y": "33496.2443055101",
      "LATITUDE": "1.31920159956387",
      "LONGITUDE": "103.761095065761",
      "LONGTITUDE": "103.761095065761"
  },
  {
      "SEARCHVAL": "NANYANG PRIMARY SCHOOL",
      "BLK_NO": "51",
      "ROAD_NAME": "CORONATION ROAD",
      "BUILDING": "NANYANG PRIMARY SCHOOL",
      "ADDRESS": "51 CORONATION ROAD NANYANG PRIMARY SCHOOL SINGAPORE 269460",
      "POSTAL": "269460",
      "X": "25011.8029676573",
      "Y": "33707.7719583772",
      "LATITUDE": "1.32111548993736",
      "LONGITUDE": "103.806468059795",
      "LONGTITUDE": "103.806468059795"
  },
  {
      "SEARCHVAL": "NANYANG PRIMARY SCHOOL",
      "BLK_NO": "52",
      "ROAD_NAME": "KING'S ROAD",
      "BUILDING": "NANYANG PRIMARY SCHOOL",
      "ADDRESS": "52 KING'S ROAD NANYANG PRIMARY SCHOOL SINGAPORE 268097",
      "POSTAL": "268097",
      "X": "25154.4872114761",
      "Y": "33678.1373927556",
      "LATITUDE": "1.32084749904532",
      "LONGITUDE": "103.807750155296",
      "LONGTITUDE": "103.807750155296"
  },
  {
      "SEARCHVAL": "NAVAL BASE PRIMARY SCHOOL",
      "BLK_NO": "7",
      "ROAD_NAME": "YISHUN AVENUE 4",
      "BUILDING": "NAVAL BASE PRIMARY SCHOOL",
      "ADDRESS": "7 YISHUN AVENUE 4 NAVAL BASE PRIMARY SCHOOL SINGAPORE 769028",
      "POSTAL": "769028",
      "X": "28609.3447617413",
      "Y": "44233.5083953608",
      "LATITUDE": "1.41630663159387",
      "LONGITUDE": "103.838794077233",
      "LONGTITUDE": "103.838794077233"
  },
  {
      "SEARCHVAL": "NEW TOWN PRIMARY SCHOOL",
      "BLK_NO": "300",
      "ROAD_NAME": "TANGLIN HALT ROAD",
      "BUILDING": "NEW TOWN PRIMARY SCHOOL",
      "ADDRESS": "300 TANGLIN HALT ROAD NEW TOWN PRIMARY SCHOOL SINGAPORE 148812",
      "POSTAL": "148812",
      "X": "24303.310102744",
      "Y": "31333.338985689",
      "LATITUDE": "1.29964188181021",
      "LONGITUDE": "103.80010216304",
      "LONGTITUDE": "103.80010216304"
  },
  {
      "SEARCHVAL": "NGEE ANN PRIMARY SCHOOL",
      "BLK_NO": "344",
      "ROAD_NAME": "MARINE TERRACE",
      "BUILDING": "NGEE ANN PRIMARY SCHOOL",
      "ADDRESS": "344 MARINE TERRACE NGEE ANN PRIMARY SCHOOL SINGAPORE 449149",
      "POSTAL": "449149",
      "X": "37364.5041869488",
      "Y": "31984.0027186833",
      "LATITUDE": "1.30552505910497",
      "LONGITUDE": "103.917463017497",
      "LONGTITUDE": "103.917463017497"
  },
  {
      "SEARCHVAL": "NORTH SPRING PRIMARY SCHOOL",
      "BLK_NO": "1",
      "ROAD_NAME": "RIVERVALE STREET",
      "BUILDING": "NORTH SPRING PRIMARY SCHOOL",
      "ADDRESS": "1 RIVERVALE STREET NORTH SPRING PRIMARY SCHOOL SINGAPORE 545088",
      "POSTAL": "545088",
      "X": "35777.2005732814",
      "Y": "40999.8398870248",
      "LATITUDE": "1.38706146494859",
      "LONGITUDE": "103.903202683028",
      "LONGTITUDE": "103.903202683028"
  },
  {
      "SEARCHVAL": "NORTH VIEW PRIMARY SCHOOL",
      "BLK_NO": "210",
      "ROAD_NAME": "YISHUN AVENUE 6",
      "BUILDING": "NORTH VIEW PRIMARY SCHOOL",
      "ADDRESS": "210 YISHUN AVENUE 6 NORTH VIEW PRIMARY SCHOOL SINGAPORE 768960",
      "POSTAL": "768960",
      "X": "29655.0564113865",
      "Y": "45473.7925722394",
      "LATITUDE": "1.42752327193727",
      "LONGITUDE": "103.848190787869",
      "LONGTITUDE": "103.848190787869"
  },
  {
      "SEARCHVAL": "NORTH VISTA PRIMARY SCHOOL",
      "BLK_NO": "20",
      "ROAD_NAME": "COMPASSVALE LINK",
      "BUILDING": "NORTH VISTA PRIMARY SCHOOL",
      "ADDRESS": "20 COMPASSVALE LINK NORTH VISTA PRIMARY SCHOOL SINGAPORE 544974",
      "POSTAL": "544974",
      "X": "34971.4042828046",
      "Y": "40531.0861005448",
      "LATITUDE": "1.38282243016299",
      "LONGITUDE": "103.895961877928",
      "LONGTITUDE": "103.895961877928"
  },
  {
      "SEARCHVAL": "NORTHLAND PRIMARY SCHOOL",
      "BLK_NO": "15",
      "ROAD_NAME": "YISHUN AVENUE 4",
      "BUILDING": "NORTHLAND PRIMARY SCHOOL",
      "ADDRESS": "15 YISHUN AVENUE 4 NORTHLAND PRIMARY SCHOOL SINGAPORE 769026",
      "POSTAL": "769026",
      "X": "28846.8654693784",
      "Y": "44749.1496797893",
      "LATITUDE": "1.42096989918951",
      "LONGITUDE": "103.840928424929",
      "LONGTITUDE": "103.840928424929"
  },
  {
      "SEARCHVAL": "NORTHOAKS PRIMARY SCHOOL",
      "BLK_NO": "61",
      "ROAD_NAME": "SEMBAWANG DRIVE",
      "BUILDING": "NORTHOAKS PRIMARY SCHOOL",
      "ADDRESS": "61 SEMBAWANG DRIVE NORTHOAKS PRIMARY SCHOOL SINGAPORE 757622",
      "POSTAL": "757622",
      "X": "25872.0767556792",
      "Y": "48689.8195981402",
      "LATITUDE": "1.45660782030102",
      "LONGITUDE": "103.814196981329",
      "LONGTITUDE": "103.814196981329"
  },
  {
      "SEARCHVAL": "NORTHSHORE PRIMARY SCHOOL",
      "BLK_NO": "30",
      "ROAD_NAME": "NORTHSHORE DRIVE",
      "BUILDING": "NORTHSHORE PRIMARY SCHOOL",
      "ADDRESS": "30 NORTHSHORE DRIVE NORTHSHORE PRIMARY SCHOOL SINGAPORE 828671",
      "POSTAL": "828671",
      "X": "35912.2240812248",
      "Y": "44436.1362924408",
      "LATITUDE": "1.41813803336667",
      "LONGITUDE": "103.904416909742",
      "LONGTITUDE": "103.904416909742"
  },
  {
      "SEARCHVAL": "OASIS PRIMARY SCHOOL",
      "BLK_NO": "71",
      "ROAD_NAME": "EDGEFIELD PLAINS",
      "BUILDING": "OASIS PRIMARY SCHOOL",
      "ADDRESS": "71 EDGEFIELD PLAINS OASIS PRIMARY SCHOOL SINGAPORE 828716",
      "POSTAL": "828716",
      "X": "36658.2990973163",
      "Y": "42941.8599344008",
      "LATITUDE": "1.40462413200793",
      "LONGITUDE": "103.911120600638",
      "LONGTITUDE": "103.911120600638"
  },
  {
      "SEARCHVAL": "OPERA ESTATE PRIMARY SCHOOL",
      "BLK_NO": "48",
      "ROAD_NAME": "FIDELIO STREET",
      "BUILDING": "OPERA ESTATE PRIMARY SCHOOL",
      "ADDRESS": "48 FIDELIO STREET OPERA ESTATE PRIMARY SCHOOL SINGAPORE 458436",
      "POSTAL": "458436",
      "X": "38068.3909911709",
      "Y": "33509.3080883529",
      "LATITUDE": "1.31931914436255",
      "LONGITUDE": "103.923788259248",
      "LONGTITUDE": "103.923788259248"
  },
  {
      "SEARCHVAL": "PALM VIEW PRIMARY SCHOOL",
      "BLK_NO": "150",
      "ROAD_NAME": "COMPASSVALE BOW",
      "BUILDING": "PALM VIEW PRIMARY SCHOOL",
      "ADDRESS": "150 COMPASSVALE BOW PALM VIEW PRIMARY SCHOOL SINGAPORE 544822",
      "POSTAL": "544822",
      "X": "34458.6783197625",
      "Y": "40635.7654705234",
      "LATITUDE": "1.38376923022123",
      "LONGITUDE": "103.891354675017",
      "LONGTITUDE": "103.891354675017"
  },
  {
      "SEARCHVAL": "PARK VIEW PRIMARY SCHOOL",
      "BLK_NO": "60",
      "ROAD_NAME": "PASIR RIS DRIVE 1",
      "BUILDING": "PARK VIEW PRIMARY SCHOOL",
      "ADDRESS": "60 PASIR RIS DRIVE 1 PARK VIEW PRIMARY SCHOOL SINGAPORE 519524",
      "POSTAL": "519524",
      "X": "39821.3162899343",
      "Y": "39929.5384668726",
      "LATITUDE": "1.37738069854249",
      "LONGITUDE": "103.939541695654",
      "LONGTITUDE": "103.939541695654"
  },
  {
      "SEARCHVAL": "PASIR RIS PRIMARY SCHOOL",
      "BLK_NO": "5",
      "ROAD_NAME": "PASIR RIS STREET 21",
      "BUILDING": "PASIR RIS PRIMARY SCHOOL",
      "ADDRESS": "5 PASIR RIS STREET 21 PASIR RIS PRIMARY SCHOOL SINGAPORE 518968",
      "POSTAL": "518968",
      "X": "42410.5136828674",
      "Y": "39380.9927665386",
      "LATITUDE": "1.37241870245531",
      "LONGITUDE": "103.962807212116",
      "LONGTITUDE": "103.962807212116"
  },
  {
      "SEARCHVAL": "PAYA LEBAR METHODIST GIRLS' SCHOOL (PRIMARY)",
      "BLK_NO": "298",
      "ROAD_NAME": "LORONG AH SOO",
      "BUILDING": "PAYA LEBAR METHODIST GIRLS' SCHOOL (PRIMARY)",
      "ADDRESS": "298 LORONG AH SOO PAYA LEBAR METHODIST GIRLS' SCHOOL (PRIMARY) SINGAPORE 536741",
      "POSTAL": "536741",
      "X": "33748.3760953182",
      "Y": "36843.4187818952",
      "LATITUDE": "1.34947276268396",
      "LONGITUDE": "103.884971343143",
      "LONGTITUDE": "103.884971343143"
  },
  {
      "SEARCHVAL": "PEI HWA PRESBYTERIAN PRIMARY SCHOOL",
      "BLK_NO": "7",
      "ROAD_NAME": "PEI WAH AVENUE",
      "BUILDING": "PEI HWA PRESBYTERIAN PRIMARY SCHOOL",
      "ADDRESS": "7 PEI WAH AVENUE PEI HWA PRESBYTERIAN PRIMARY SCHOOL SINGAPORE 597610",
      "POSTAL": "597610",
      "X": "21632.898745548",
      "Y": "35581.0631004851",
      "LATITUDE": "1.33805634613048",
      "LONGITUDE": "103.776106448614",
      "LONGTITUDE": "103.776106448614"
  },
  {
      "SEARCHVAL": "PEI TONG PRIMARY SCHOOL",
      "BLK_NO": "15",
      "ROAD_NAME": "CLEMENTI AVENUE 5",
      "BUILDING": "PEI TONG PRIMARY SCHOOL",
      "ADDRESS": "15 CLEMENTI AVENUE 5 PEI TONG PRIMARY SCHOOL SINGAPORE 129857",
      "POSTAL": "129857",
      "X": "20686.1367668323",
      "Y": "33164.0863881912",
      "LATITUDE": "1.31619786415976",
      "LONGITUDE": "103.767599818844",
      "LONGTITUDE": "103.767599818844"
  },
  {
      "SEARCHVAL": "PEIYING PRIMARY SCHOOL",
      "BLK_NO": "651",
      "ROAD_NAME": "YISHUN RING ROAD",
      "BUILDING": "PEIYING PRIMARY SCHOOL",
      "ADDRESS": "651 YISHUN RING ROAD PEIYING PRIMARY SCHOOL SINGAPORE 768687",
      "POSTAL": "768687",
      "X": "27677.1059972411",
      "Y": "44335.9849220216",
      "LATITUDE": "1.41723339695904",
      "LONGITUDE": "103.830417090698",
      "LONGTITUDE": "103.830417090698"
  },
  {
      "SEARCHVAL": "PIONEER PRIMARY SCHOOL",
      "BLK_NO": "31",
      "ROAD_NAME": "JURONG WEST STREET 91",
      "BUILDING": "PIONEER PRIMARY SCHOOL",
      "ADDRESS": "31 JURONG WEST STREET 91 PIONEER PRIMARY SCHOOL SINGAPORE 649037",
      "POSTAL": "649037",
      "X": "11801.9417791683",
      "Y": "35688.3182758801",
      "LATITUDE": "1.33902264667589",
      "LONGITUDE": "103.687769623983",
      "LONGTITUDE": "103.687769623983"
  },
  {
      "SEARCHVAL": "POWERLIFE STUDENT SERVICES @ QIHUA PRIMARY SCHOOL",
      "BLK_NO": "5",
      "ROAD_NAME": "WOODLANDS STREET 81",
      "BUILDING": "POWERLIFE STUDENT SERVICES @ QIHUA PRIMARY SCHOOL",
      "ADDRESS": "5 WOODLANDS STREET 81 POWERLIFE STUDENT SERVICES @ QIHUA PRIMARY SCHOOL SINGAPORE 738525",
      "POSTAL": "738525",
      "X": "22994.5556907868",
      "Y": "47078.5773993656",
      "LATITUDE": "1.44203596557592",
      "LONGITUDE": "103.788339762066",
      "LONGTITUDE": "103.788339762066"
  },
  {
      "SEARCHVAL": "PRINCESS ELIZABETH PRIMARY SCHOOL",
      "BLK_NO": "30",
      "ROAD_NAME": "BUKIT BATOK WEST AVENUE 3",
      "BUILDING": "PRINCESS ELIZABETH PRIMARY SCHOOL",
      "ADDRESS": "30 BUKIT BATOK WEST AVENUE 3 PRINCESS ELIZABETH PRIMARY SCHOOL SINGAPORE 659163",
      "POSTAL": "659163",
      "X": "17728.1546840398",
      "Y": "36813.7803722396",
      "LATITUDE": "1.349203512653",
      "LONGITUDE": "103.74101964471",
      "LONGTITUDE": "103.74101964471"
  },
  {
      "SEARCHVAL": "PUNGGOL COVE PRIMARY SCHOOL",
      "BLK_NO": "52",
      "ROAD_NAME": "SUMANG WALK",
      "BUILDING": "PUNGGOL COVE PRIMARY SCHOOL",
      "ADDRESS": "52 SUMANG WALK PUNGGOL COVE PRIMARY SCHOOL SINGAPORE 828674",
      "POSTAL": "828674",
      "X": "35287.5991076548",
      "Y": "43713.0898242556",
      "LATITUDE": "1.41159923273069",
      "LONGITUDE": "103.898803921164",
      "LONGTITUDE": "103.898803921164"
  },
  {
      "SEARCHVAL": "PUNGGOL GREEN PRIMARY SCHOOL",
      "BLK_NO": "98",
      "ROAD_NAME": "PUNGGOL WALK",
      "BUILDING": "PUNGGOL GREEN PRIMARY SCHOOL",
      "ADDRESS": "98 PUNGGOL WALK PUNGGOL GREEN PRIMARY SCHOOL SINGAPORE 828772",
      "POSTAL": "828772",
      "X": "35287.340952022",
      "Y": "42637.5237120874",
      "LATITUDE": "1.40187220643293",
      "LONGITUDE": "103.898801330302",
      "LONGTITUDE": "103.898801330302"
  },
  {
      "SEARCHVAL": "PUNGGOL PRIMARY SCHOOL",
      "BLK_NO": "61",
      "ROAD_NAME": "HOUGANG AVENUE 8",
      "BUILDING": "PUNGGOL PRIMARY SCHOOL",
      "ADDRESS": "61 HOUGANG AVENUE 8 PUNGGOL PRIMARY SCHOOL SINGAPORE 538787",
      "POSTAL": "538787",
      "X": "34809.5016854042",
      "Y": "39975.1199013237",
      "LATITUDE": "1.37779451191095",
      "LONGITUDE": "103.894506933668",
      "LONGTITUDE": "103.894506933668"
  },
  {
      "SEARCHVAL": "PUNGGOL VIEW PRIMARY SCHOOL",
      "BLK_NO": "9",
      "ROAD_NAME": "PUNGGOL PLACE",
      "BUILDING": "PUNGGOL VIEW PRIMARY SCHOOL",
      "ADDRESS": "9 PUNGGOL PLACE PUNGGOL VIEW PRIMARY SCHOOL SINGAPORE 828845",
      "POSTAL": "828845",
      "X": "35994.5599585725",
      "Y": "42999.5250743832",
      "LATITUDE": "1.40514582647962",
      "LONGITUDE": "103.905156371376",
      "LONGTITUDE": "103.905156371376"
  },
  {
      "SEARCHVAL": "QIFA PRIMARY SCHOOL",
      "BLK_NO": "50",
      "ROAD_NAME": "WEST COAST AVENUE",
      "BUILDING": "QIFA PRIMARY SCHOOL",
      "ADDRESS": "50 WEST COAST AVENUE QIFA PRIMARY SCHOOL SINGAPORE 128104",
      "POSTAL": "128104",
      "X": "19477.8961843997",
      "Y": "32838.2868056744",
      "LATITUDE": "1.31325113867272",
      "LONGITUDE": "103.756743261958",
      "LONGTITUDE": "103.756743261958"
  },
  {
      "SEARCHVAL": "QIHUA PRIMARY SCHOOL",
      "BLK_NO": "5",
      "ROAD_NAME": "WOODLANDS STREET 81",
      "BUILDING": "QIHUA PRIMARY SCHOOL",
      "ADDRESS": "5 WOODLANDS STREET 81 QIHUA PRIMARY SCHOOL SINGAPORE 738525",
      "POSTAL": "738525",
      "X": "22994.5551156951",
      "Y": "47078.5774599016",
      "LATITUDE": "1.4420359661233",
      "LONGITUDE": "103.788339756898",
      "LONGTITUDE": "103.788339756898"
  },
  {
      "SEARCHVAL": "QUEENSTOWN PRIMARY SCHOOL",
      "BLK_NO": "310",
      "ROAD_NAME": "MARGARET DRIVE",
      "BUILDING": "QUEENSTOWN PRIMARY SCHOOL",
      "ADDRESS": "310 MARGARET DRIVE QUEENSTOWN PRIMARY SCHOOL SINGAPORE 149303",
      "POSTAL": "149303",
      "X": "25132.029336133",
      "Y": "30885.6966638304",
      "LATITUDE": "1.29559365009015",
      "LONGITUDE": "103.807548617332",
      "LONGTITUDE": "103.807548617332"
  },
  {
      "SEARCHVAL": "RADIN MAS PRIMARY SCHOOL",
      "BLK_NO": "1",
      "ROAD_NAME": "BUKIT PURMEI AVENUE",
      "BUILDING": "RADIN MAS PRIMARY SCHOOL",
      "ADDRESS": "1 BUKIT PURMEI AVENUE RADIN MAS PRIMARY SCHOOL SINGAPORE 099840",
      "POSTAL": "099840",
      "X": "26983.8685896052",
      "Y": "28603.9263991714",
      "LATITUDE": "1.27495823622634",
      "LONGITUDE": "103.824188270373",
      "LONGTITUDE": "103.824188270373"
  },
  {
      "SEARCHVAL": "RAFFLES GIRLS' PRIMARY SCHOOL",
      "BLK_NO": "21",
      "ROAD_NAME": "HILLCREST ROAD",
      "BUILDING": "RAFFLES GIRLS' PRIMARY SCHOOL",
      "ADDRESS": "21 HILLCREST ROAD RAFFLES GIRLS' PRIMARY SCHOOL SINGAPORE 289072",
      "POSTAL": "289072",
      "X": "25009.0146507286",
      "Y": "34624.3017604016",
      "LATITUDE": "1.3294042600012",
      "LONGITUDE": "103.806442915912",
      "LONGTITUDE": "103.806442915912"
  },
  {
      "SEARCHVAL": "RIVER VALLEY PRIMARY SCHOOL",
      "BLK_NO": "2",
      "ROAD_NAME": "RIVER VALLEY GREEN",
      "BUILDING": "RIVER VALLEY PRIMARY SCHOOL",
      "ADDRESS": "2 RIVER VALLEY GREEN RIVER VALLEY PRIMARY SCHOOL SINGAPORE 237993",
      "POSTAL": "237993",
      "X": "28277.8483209386",
      "Y": "30734.1542524323",
      "LATITUDE": "1.2942232846169",
      "LONGITUDE": "103.835815165829",
      "LONGTITUDE": "103.835815165829"
  },
  {
      "SEARCHVAL": "RIVERSIDE PRIMARY SCHOOL",
      "BLK_NO": "110",
      "ROAD_NAME": "WOODLANDS CRESCENT",
      "BUILDING": "RIVERSIDE PRIMARY SCHOOL",
      "ADDRESS": "110 WOODLANDS CRESCENT RIVERSIDE PRIMARY SCHOOL SINGAPORE 737803",
      "POSTAL": "737803",
      "X": "24496.0361921666",
      "Y": "47632.6851746552",
      "LATITUDE": "1.44704734253719",
      "LONGITUDE": "103.801831963297",
      "LONGTITUDE": "103.801831963297"
  },
  {
      "SEARCHVAL": "RIVERVALE PRIMARY SCHOOL",
      "BLK_NO": "80",
      "ROAD_NAME": "RIVERVALE DRIVE",
      "BUILDING": "RIVERVALE PRIMARY SCHOOL",
      "ADDRESS": "80 RIVERVALE DRIVE RIVERVALE PRIMARY SCHOOL SINGAPORE 545092",
      "POSTAL": "545092",
      "X": "35928.1770641869",
      "Y": "41701.8312798403",
      "LATITUDE": "1.39340997767762",
      "LONGITUDE": "103.904559511997",
      "LONGTITUDE": "103.904559511997"
  },
  {
      "SEARCHVAL": "RULANG PRIMARY SCHOOL",
      "BLK_NO": "6",
      "ROAD_NAME": "JURONG WEST STREET 52",
      "BUILDING": "RULANG PRIMARY SCHOOL",
      "ADDRESS": "6 JURONG WEST STREET 52 RULANG PRIMARY SCHOOL SINGAPORE 649295",
      "POSTAL": "649295",
      "X": "15217.2735802168",
      "Y": "36541.3390983045",
      "LATITUDE": "1.34673868889096",
      "LONGITUDE": "103.718457955487",
      "LONGTITUDE": "103.718457955487"
  },
  {
      "SEARCHVAL": "SAINT ANTHONY'S CANOSSIAN PRIMARY SCHOOL",
      "BLK_NO": "1602",
      "ROAD_NAME": "BEDOK NORTH AVENUE 4",
      "BUILDING": "SAINT ANTHONY'S CANOSSIAN PRIMARY SCHOOL",
      "ADDRESS": "1602 BEDOK NORTH AVENUE 4 SAINT ANTHONY'S CANOSSIAN PRIMARY SCHOOL SINGAPORE 469701",
      "POSTAL": "469701",
      "X": "40009.9558383394",
      "Y": "35212.930261923",
      "LATITUDE": "1.3347253730189",
      "LONGITUDE": "103.941234868202",
      "LONGTITUDE": "103.941234868202"
  },
  {
      "SEARCHVAL": "SAINT ANTHONY'S PRIMARY SCHOOL",
      "BLK_NO": "30",
      "ROAD_NAME": "BUKIT BATOK STREET 32",
      "BUILDING": "SAINT ANTHONY'S PRIMARY SCHOOL",
      "ADDRESS": "30 BUKIT BATOK STREET 32 SAINT ANTHONY'S PRIMARY SCHOOL SINGAPORE 659401",
      "POSTAL": "659401",
      "X": "18644.3733009221",
      "Y": "38463.0810494516",
      "LATITUDE": "1.36411948475833",
      "LONGITUDE": "103.749251919049",
      "LONGTITUDE": "103.749251919049"
  },
  {
      "SEARCHVAL": "SAINT GABRIEL'S PRIMARY SCHOOL",
      "BLK_NO": "220",
      "ROAD_NAME": "LORONG CHUAN",
      "BUILDING": "SAINT GABRIEL'S PRIMARY SCHOOL",
      "ADDRESS": "220 LORONG CHUAN SAINT GABRIEL'S PRIMARY SCHOOL SINGAPORE 556742",
      "POSTAL": "556742",
      "X": "31254.358949963",
      "Y": "36843.2848763354",
      "LATITUDE": "1.34947192653862",
      "LONGITUDE": "103.862561037707",
      "LONGTITUDE": "103.862561037707"
  },
  {
      "SEARCHVAL": "SAINT HILDA'S PRIMARY SCHOOL",
      "BLK_NO": "2",
      "ROAD_NAME": "TAMPINES AVENUE 3",
      "BUILDING": "SAINT HILDA'S PRIMARY SCHOOL",
      "ADDRESS": "2 TAMPINES AVENUE 3 SAINT HILDA'S PRIMARY SCHOOL SINGAPORE 529706",
      "POSTAL": "529706",
      "X": "39539.3839146122",
      "Y": "36833.9711756017",
      "LATITUDE": "1.34938565036336",
      "LONGITUDE": "103.937007133662",
      "LONGTITUDE": "103.937007133662"
  },
  {
      "SEARCHVAL": "SAINT HILDA'S PRIMARY SCHOOL (U/C)",
      "BLK_NO": "2",
      "ROAD_NAME": "TAMPINES AVENUE 3",
      "BUILDING": "SAINT HILDA'S PRIMARY SCHOOL (U/C)",
      "ADDRESS": "2 TAMPINES AVENUE 3 SAINT HILDA'S PRIMARY SCHOOL (U/C) SINGAPORE 529706",
      "POSTAL": "529706",
      "X": "39641.0330356695",
      "Y": "36830.0272573233",
      "LATITUDE": "1.34934994368496",
      "LONGITUDE": "103.937920511812",
      "LONGTITUDE": "103.937920511812"
  },
  {
      "SEARCHVAL": "SAINT MARGARET'S PRIMARY SCHOOL",
      "BLK_NO": "2",
      "ROAD_NAME": "MATTAR ROAD",
      "BUILDING": "SAINT MARGARET'S PRIMARY SCHOOL",
      "ADDRESS": "2 MATTAR ROAD SAINT MARGARET'S PRIMARY SCHOOL SINGAPORE 387724",
      "POSTAL": "387724",
      "X": "33376.0018041981",
      "Y": "34070.0528455041",
      "LATITUDE": "1.32439150290682",
      "LONGITUDE": "103.881624837373",
      "LONGTITUDE": "103.881624837373"
  },
  {
      "SEARCHVAL": "SAINT MARGARET'S PRIMARY SCHOOL (U/C)",
      "BLK_NO": "136",
      "ROAD_NAME": "SOPHIA ROAD",
      "BUILDING": "SAINT MARGARET'S PRIMARY SCHOOL (U/C)",
      "ADDRESS": "136 SOPHIA ROAD SAINT MARGARET'S PRIMARY SCHOOL (U/C) SINGAPORE 228197",
      "POSTAL": "228197",
      "X": "29432.7525088117",
      "Y": "31788.5599566493",
      "LATITUDE": "1.30375892693678",
      "LONGITUDE": "103.846192524384",
      "LONGTITUDE": "103.846192524384"
  },
  {
      "SEARCHVAL": "SEMBAWANG PRIMARY SCHOOL",
      "BLK_NO": "10",
      "ROAD_NAME": "SEMBAWANG DRIVE",
      "BUILDING": "SEMBAWANG PRIMARY SCHOOL",
      "ADDRESS": "10 SEMBAWANG DRIVE SEMBAWANG PRIMARY SCHOOL SINGAPORE 757715",
      "POSTAL": "757715",
      "X": "26633.8508971538",
      "Y": "47414.4307650849",
      "LATITUDE": "1.4450737155262",
      "LONGITUDE": "103.821042374036",
      "LONGTITUDE": "103.821042374036"
  },
  {
      "SEARCHVAL": "SENG KANG PRIMARY SCHOOL",
      "BLK_NO": "21",
      "ROAD_NAME": "COMPASSVALE WALK",
      "BUILDING": "SENG KANG PRIMARY SCHOOL",
      "ADDRESS": "21 COMPASSVALE WALK SENG KANG PRIMARY SCHOOL SINGAPORE 545166",
      "POSTAL": "545166",
      "X": "35394.8580362787",
      "Y": "41269.1828696113",
      "LATITUDE": "1.38949740422462",
      "LONGITUDE": "103.899767112047",
      "LONGTITUDE": "103.899767112047"
  },
  {
      "SEARCHVAL": "SENGKANG GREEN PRIMARY SCHOOL",
      "BLK_NO": "15",
      "ROAD_NAME": "FERNVALE ROAD",
      "BUILDING": "SENGKANG GREEN PRIMARY SCHOOL",
      "ADDRESS": "15 FERNVALE ROAD SENGKANG GREEN PRIMARY SCHOOL SINGAPORE 797636",
      "POSTAL": "797636",
      "X": "32662.8166451091",
      "Y": "41639.3984784018",
      "LATITUDE": "1.39284606680477",
      "LONGITUDE": "103.875217666486",
      "LONGTITUDE": "103.875217666486"
  },
  {
      "SEARCHVAL": "SHG STUDENT CARE (BENDEMEER PRIMARY SCHOOL)",
      "BLK_NO": "91",
      "ROAD_NAME": "BENDEMEER ROAD",
      "BUILDING": "SHG STUDENT CARE (BENDEMEER PRIMARY SCHOOL)",
      "ADDRESS": "91 BENDEMEER ROAD SHG STUDENT CARE (BENDEMEER PRIMARY SCHOOL) SINGAPORE 339948",
      "POSTAL": "339948",
      "X": "31564.9272895884",
      "Y": "33828.6365878265",
      "LATITUDE": "1.32220848530291",
      "LONGITUDE": "103.865351336085",
      "LONGTITUDE": "103.865351336085"
  },
  {
      "SEARCHVAL": "SHG STUDENT CARE (BLANGAH RISE PRIMARY SCHOOL)",
      "BLK_NO": "91",
      "ROAD_NAME": "TELOK BLANGAH HEIGHTS",
      "BUILDING": "SHG STUDENT CARE (BLANGAH RISE PRIMARY SCHOOL)",
      "ADDRESS": "91 TELOK BLANGAH HEIGHTS SHG STUDENT CARE (BLANGAH RISE PRIMARY SCHOOL) SINGAPORE 109100",
      "POSTAL": "109100",
      "X": "25250.4834536267",
      "Y": "28735.1893522833",
      "LATITUDE": "1.27614522920998",
      "LONGITUDE": "103.80861316604",
      "LONGTITUDE": "103.80861316604"
  },
  {
      "SEARCHVAL": "SHG STUDENT CARE (FUCHUN PRIMARY SCHOOL)",
      "BLK_NO": "23",
      "ROAD_NAME": "WOODLANDS AVENUE 1",
      "BUILDING": "SHG STUDENT CARE (FUCHUN PRIMARY SCHOOL)",
      "ADDRESS": "23 WOODLANDS AVENUE 1 SHG STUDENT CARE (FUCHUN PRIMARY SCHOOL) SINGAPORE 739063",
      "POSTAL": "739063",
      "X": "21863.36610494",
      "Y": "45818.4663008247",
      "LATITUDE": "1.43063975763573",
      "LONGITUDE": "103.778175192579",
      "LONGTITUDE": "103.778175192579"
  },
  {
      "SEARCHVAL": "SHG STUDENT CARE (GREENWOOD PRIMARY SCHOOL)",
      "BLK_NO": "11",
      "ROAD_NAME": "WOODLANDS DRIVE 62",
      "BUILDING": "SHG STUDENT CARE (GREENWOOD PRIMARY SCHOOL)",
      "ADDRESS": "11 WOODLANDS DRIVE 62 SHG STUDENT CARE (GREENWOOD PRIMARY SCHOOL) SINGAPORE 737942",
      "POSTAL": "737942",
      "X": "24794.6262799157",
      "Y": "46865.6384109538",
      "LATITUDE": "1.4401104867196",
      "LONGITUDE": "103.804515180606",
      "LONGTITUDE": "103.804515180606"
  },
  {
      "SEARCHVAL": "SHG STUDENT CARE (MAYFLOWER PRIMARY SCHOOL)",
      "BLK_NO": "200",
      "ROAD_NAME": "ANG MO KIO AVENUE 5",
      "BUILDING": "SHG STUDENT CARE (MAYFLOWER PRIMARY SCHOOL)",
      "ADDRESS": "200 ANG MO KIO AVENUE 5 SHG STUDENT CARE (MAYFLOWER PRIMARY SCHOOL) SINGAPORE 569878",
      "POSTAL": "569878",
      "X": "29095.8686998552",
      "Y": "39820.6966135036",
      "LATITUDE": "1.37639873282244",
      "LONGITUDE": "103.843165756947",
      "LONGTITUDE": "103.843165756947"
  },
  {
      "SEARCHVAL": "SHG STUDENT CARE (TECK WHYE PRIMARY SCHOOL)",
      "BLK_NO": "11",
      "ROAD_NAME": "TECK WHYE WALK",
      "BUILDING": "SHG STUDENT CARE (TECK WHYE PRIMARY SCHOOL)",
      "ADDRESS": "11 TECK WHYE WALK SHG STUDENT CARE (TECK WHYE PRIMARY SCHOOL) SINGAPORE 688261",
      "POSTAL": "688261",
      "X": "19164.4558974076",
      "Y": "40648.8130902648",
      "LATITUDE": "1.38388660469396",
      "LONGITUDE": "103.753924558586",
      "LONGTITUDE": "103.753924558586"
  },
  {
      "SEARCHVAL": "SHG STUDENT CARE (XINGNAN PRIMARY SCHOOL)",
      "BLK_NO": "5",
      "ROAD_NAME": "JURONG WEST STREET 91",
      "BUILDING": "SHG STUDENT CARE (XINGNAN PRIMARY SCHOOL)",
      "ADDRESS": "5 JURONG WEST STREET 91 SHG STUDENT CARE (XINGNAN PRIMARY SCHOOL) SINGAPORE 649036",
      "POSTAL": "649036",
      "X": "11781.8064267524",
      "Y": "36095.6510288138",
      "LATITUDE": "1.34270639669225",
      "LONGITUDE": "103.687588478681",
      "LONGTITUDE": "103.687588478681"
  },
  {
      "SEARCHVAL": "SHG STUDENT CARE (YUMIN PRIMARY SCHOOL)",
      "BLK_NO": "3",
      "ROAD_NAME": "TAMPINES STREET 21",
      "BUILDING": "SHG STUDENT CARE (YUMIN PRIMARY SCHOOL)",
      "ADDRESS": "3 TAMPINES STREET 21 SHG STUDENT CARE (YUMIN PRIMARY SCHOOL) SINGAPORE 529393",
      "POSTAL": "529393",
      "X": "41046.6676057065",
      "Y": "37047.4549574535",
      "LATITUDE": "1.35131569890862",
      "LONGITUDE": "103.950551091373",
      "LONGTITUDE": "103.950551091373"
  },
  {
      "SEARCHVAL": "SHUQUN PRIMARY SCHOOL",
      "BLK_NO": "8",
      "ROAD_NAME": "JURONG WEST STREET 51",
      "BUILDING": "SHUQUN PRIMARY SCHOOL",
      "ADDRESS": "8 JURONG WEST STREET 51 SHUQUN PRIMARY SCHOOL SINGAPORE 649332",
      "POSTAL": "649332",
      "X": "15558.4638573611",
      "Y": "36642.4359194618",
      "LATITUDE": "1.34765311431632",
      "LONGITUDE": "103.721523713379",
      "LONGTITUDE": "103.721523713379"
  },
  {
      "SEARCHVAL": "SI LING PRIMARY SCHOOL",
      "BLK_NO": "61",
      "ROAD_NAME": "WOODLANDS AVENUE 1",
      "BUILDING": "SI LING PRIMARY SCHOOL",
      "ADDRESS": "61 WOODLANDS AVENUE 1 SI LING PRIMARY SCHOOL SINGAPORE 739067",
      "POSTAL": "739067",
      "X": "22738.0565941427",
      "Y": "46014.1202728488",
      "LATITUDE": "1.43240935732525",
      "LONGITUDE": "103.786035065192",
      "LONGTITUDE": "103.786035065192"
  },
  {
      "SEARCHVAL": "SINGAPORE CHINESE GIRLS' SCHOOL (PRIMARY)",
      "BLK_NO": "190",
      "ROAD_NAME": "DUNEARN ROAD",
      "BUILDING": "SINGAPORE CHINESE GIRLS' SCHOOL (PRIMARY)",
      "ADDRESS": "190 DUNEARN ROAD SINGAPORE CHINESE GIRLS' SCHOOL (PRIMARY) SINGAPORE 309437",
      "POSTAL": "309437",
      "X": "27379.6878858209",
      "Y": "33673.6731678378",
      "LATITUDE": "1.32080725235992",
      "LONGITUDE": "103.827744749548",
      "LONGTITUDE": "103.827744749548"
  },
  {
      "SEARCHVAL": "SOUTH VIEW PRIMARY SCHOOL",
      "BLK_NO": "6",
      "ROAD_NAME": "CHOA CHU KANG CENTRAL",
      "BUILDING": "SOUTH VIEW PRIMARY SCHOOL",
      "ADDRESS": "6 CHOA CHU KANG CENTRAL SOUTH VIEW PRIMARY SCHOOL SINGAPORE 689762",
      "POSTAL": "689762",
      "X": "18313.2418920035",
      "Y": "40403.3706761971",
      "LATITUDE": "1.38166664389749",
      "LONGITUDE": "103.746275846011",
      "LONGTITUDE": "103.746275846011"
  },
  {
      "SEARCHVAL": "SPRINGDALE PRIMARY SCHOOL",
      "BLK_NO": "71",
      "ROAD_NAME": "ANCHORVALE LINK",
      "BUILDING": "SPRINGDALE PRIMARY SCHOOL",
      "ADDRESS": "71 ANCHORVALE LINK SPRINGDALE PRIMARY SCHOOL SINGAPORE 544799",
      "POSTAL": "544799",
      "X": "34299.680692099",
      "Y": "41841.1254489459",
      "LATITUDE": "1.39467010299293",
      "LONGITUDE": "103.889926221247",
      "LONGTITUDE": "103.889926221247"
  },
  {
      "SEARCHVAL": "STAMFORD PRIMARY SCHOOL",
      "BLK_NO": "1",
      "ROAD_NAME": "VICTORIA LANE",
      "BUILDING": "STAMFORD PRIMARY SCHOOL",
      "ADDRESS": "1 VICTORIA LANE STAMFORD PRIMARY SCHOOL SINGAPORE 198423",
      "POSTAL": "198423",
      "X": "30685.996679619",
      "Y": "31755.1155901849",
      "LATITUDE": "1.30345638467449",
      "LONGITUDE": "103.857453500579",
      "LONGTITUDE": "103.857453500579"
  },
  {
      "SEARCHVAL": "TAMPINES NORTH PRIMARY SCHOOL",
      "BLK_NO": "30",
      "ROAD_NAME": "TAMPINES AVENUE 9",
      "BUILDING": "TAMPINES NORTH PRIMARY SCHOOL",
      "ADDRESS": "30 TAMPINES AVENUE 9 TAMPINES NORTH PRIMARY SCHOOL SINGAPORE 529565",
      "POSTAL": "529565",
      "X": "40843.482626386",
      "Y": "38060.3925251346",
      "LATITUDE": "1.36047641484682",
      "LONGITUDE": "103.948725782833",
      "LONGTITUDE": "103.948725782833"
  },
  {
      "SEARCHVAL": "TAMPINES PRIMARY SCHOOL",
      "BLK_NO": "250",
      "ROAD_NAME": "TAMPINES STREET 12",
      "BUILDING": "TAMPINES PRIMARY SCHOOL",
      "ADDRESS": "250 TAMPINES STREET 12 TAMPINES PRIMARY SCHOOL SINGAPORE 529426",
      "POSTAL": "529426",
      "X": "40318.132583499",
      "Y": "36877.4678724073",
      "LATITUDE": "1.34977870805929",
      "LONGITUDE": "103.944004684986",
      "LONGTITUDE": "103.944004684986"
  },
  {
      "SEARCHVAL": "TANJONG KATONG PRIMARY SCHOOL",
      "BLK_NO": "10",
      "ROAD_NAME": "SERAYA ROAD",
      "BUILDING": "TANJONG KATONG PRIMARY SCHOOL",
      "ADDRESS": "10 SERAYA ROAD TANJONG KATONG PRIMARY SCHOOL SINGAPORE 437259",
      "POSTAL": "437259",
      "X": "35431.3472408336",
      "Y": "31952.5175080001",
      "LATITUDE": "1.30524084264265",
      "LONGITUDE": "103.900092702031",
      "LONGTITUDE": "103.900092702031"
  },
  {
      "SEARCHVAL": "TECK GHEE PRIMARY SCHOOL",
      "BLK_NO": "1",
      "ROAD_NAME": "ANG MO KIO STREET 32",
      "BUILDING": "TECK GHEE PRIMARY SCHOOL",
      "ADDRESS": "1 ANG MO KIO STREET 32 TECK GHEE PRIMARY SCHOOL SINGAPORE 569299",
      "POSTAL": "569299",
      "X": "29962.9602906732",
      "Y": "38625.285902936",
      "LATITUDE": "1.36558782075966",
      "LONGITUDE": "103.850957126982",
      "LONGTITUDE": "103.850957126982"
  },
  {
      "SEARCHVAL": "TECK WHYE PRIMARY SCHOOL",
      "BLK_NO": "11",
      "ROAD_NAME": "TECK WHYE WALK",
      "BUILDING": "TECK WHYE PRIMARY SCHOOL",
      "ADDRESS": "11 TECK WHYE WALK TECK WHYE PRIMARY SCHOOL SINGAPORE 688261",
      "POSTAL": "688261",
      "X": "19094.0433355458",
      "Y": "40622.6493846048",
      "LATITUDE": "1.38364996834457",
      "LONGITUDE": "103.753291857016",
      "LONGTITUDE": "103.753291857016"
  },
  {
      "SEARCHVAL": "TELOK KURAU PRIMARY SCHOOL",
      "BLK_NO": "50",
      "ROAD_NAME": "BEDOK RESERVOIR ROAD",
      "BUILDING": "TELOK KURAU PRIMARY SCHOOL",
      "ADDRESS": "50 BEDOK RESERVOIR ROAD TELOK KURAU PRIMARY SCHOOL SINGAPORE 479239",
      "POSTAL": "479239",
      "X": "36637.797290422",
      "Y": "34805.9404149763",
      "LATITUDE": "1.33104585441349",
      "LONGITUDE": "103.910934011337",
      "LONGTITUDE": "103.910934011337"
  },
  {
      "SEARCHVAL": "TEMASEK PRIMARY SCHOOL",
      "BLK_NO": "501",
      "ROAD_NAME": "BEDOK SOUTH AVENUE 3",
      "BUILDING": "TEMASEK PRIMARY SCHOOL",
      "ADDRESS": "501 BEDOK SOUTH AVENUE 3 TEMASEK PRIMARY SCHOOL SINGAPORE 469300",
      "POSTAL": "469300",
      "X": "40494.7969370941",
      "Y": "33331.1191061512",
      "LATITUDE": "1.31770677551333",
      "LONGITUDE": "103.945590669163",
      "LONGTITUDE": "103.945590669163"
  },
  {
      "SEARCHVAL": "THE JAPANESE PRIMARY SCHOOL",
      "BLK_NO": "11",
      "ROAD_NAME": "UPPER CHANGI ROAD NORTH",
      "BUILDING": "THE JAPANESE PRIMARY SCHOOL",
      "ADDRESS": "11 UPPER CHANGI ROAD NORTH THE JAPANESE PRIMARY SCHOOL SINGAPORE 507657",
      "POSTAL": "507657",
      "X": "42720.3882500371",
      "Y": "37369.7845880482",
      "LATITUDE": "1.35422994843944",
      "LONGITUDE": "103.965590656291",
      "LONGTITUDE": "103.965590656291"
  },
  {
      "SEARCHVAL": "THE JAPANESE PRIMARY SCHOOL",
      "BLK_NO": "95",
      "ROAD_NAME": "CLEMENTI ROAD",
      "BUILDING": "THE JAPANESE PRIMARY SCHOOL",
      "ADDRESS": "95 CLEMENTI ROAD THE JAPANESE PRIMARY SCHOOL SINGAPORE 129782",
      "POSTAL": "129782",
      "X": "20881.392987282",
      "Y": "31403.1553288065",
      "LATITUDE": "1.3002726804131",
      "LONGITUDE": "103.769354697383",
      "LONGTITUDE": "103.769354697383"
  },
  {
      "SEARCHVAL": "THE LEARNING HARBOUR @ ADMIRALTY PRIMARY SCHOOL",
      "BLK_NO": "11",
      "ROAD_NAME": "WOODLANDS CIRCLE",
      "BUILDING": "THE LEARNING HARBOUR @ ADMIRALTY PRIMARY SCHOOL",
      "ADDRESS": "11 WOODLANDS CIRCLE THE LEARNING HARBOUR @ ADMIRALTY PRIMARY SCHOOL SINGAPORE 738907",
      "POSTAL": "738907",
      "X": "24315.9398124339",
      "Y": "47135.3542042952",
      "LATITUDE": "1.44254963931583",
      "LONGITUDE": "103.800213682734",
      "LONGTITUDE": "103.800213682734"
  },
  {
      "SEARCHVAL": "TOWNSVILLE PRIMARY SCHOOL",
      "BLK_NO": "3",
      "ROAD_NAME": "ANG MO KIO AVENUE 10",
      "BUILDING": "TOWNSVILLE PRIMARY SCHOOL",
      "ADDRESS": "3 ANG MO KIO AVENUE 10 TOWNSVILLE PRIMARY SCHOOL SINGAPORE 569730",
      "POSTAL": "569730",
      "X": "30282.242298523",
      "Y": "38011.0245356523",
      "LATITUDE": "1.36003263746623",
      "LONGITUDE": "103.853826048327",
      "LONGTITUDE": "103.853826048327"
  },
  {
      "SEARCHVAL": "TRI-LOVE STUDENT CARE @ NORTH VIEW PRIMARY SCHOOL",
      "BLK_NO": "210",
      "ROAD_NAME": "YISHUN AVENUE 6",
      "BUILDING": "TRI-LOVE STUDENT CARE @ NORTH VIEW PRIMARY SCHOOL",
      "ADDRESS": "210 YISHUN AVENUE 6 TRI-LOVE STUDENT CARE @ NORTH VIEW PRIMARY SCHOOL SINGAPORE 768960",
      "POSTAL": "768960",
      "X": "29662.2004727796",
      "Y": "45473.7919063438",
      "LATITUDE": "1.42752326549687",
      "LONGITUDE": "103.848254983853",
      "LONGTITUDE": "103.848254983853"
  },
  {
      "SEARCHVAL": "UNITY PRIMARY SCHOOL",
      "BLK_NO": "21",
      "ROAD_NAME": "CHOA CHU KANG CRESCENT",
      "BUILDING": "UNITY PRIMARY SCHOOL",
      "ADDRESS": "21 CHOA CHU KANG CRESCENT UNITY PRIMARY SCHOOL SINGAPORE 688268",
      "POSTAL": "688268",
      "X": "18374.1775784306",
      "Y": "42746.2521210518",
      "LATITUDE": "1.40285481877246",
      "LONGITUDE": "103.746822625758",
      "LONGTITUDE": "103.746822625758"
  },
  {
      "SEARCHVAL": "VALOUR PRIMARY SCHOOL",
      "BLK_NO": "49",
      "ROAD_NAME": "PUNGGOL CENTRAL",
      "BUILDING": "VALOUR PRIMARY SCHOOL",
      "ADDRESS": "49 PUNGGOL CENTRAL VALOUR PRIMARY SCHOOL SINGAPORE 828728",
      "POSTAL": "828728",
      "X": "35318.1306347065",
      "Y": "43186.3631934691",
      "LATITUDE": "1.40683570215319",
      "LONGITUDE": "103.899078139493",
      "LONGTITUDE": "103.899078139493"
  },
  {
      "SEARCHVAL": "WATERWAY PRIMARY SCHOOL",
      "BLK_NO": "70",
      "ROAD_NAME": "PUNGGOL DRIVE",
      "BUILDING": "WATERWAY PRIMARY SCHOOL",
      "ADDRESS": "70 PUNGGOL DRIVE WATERWAY PRIMARY SCHOOL SINGAPORE 828802",
      "POSTAL": "828802",
      "X": "37493.0794339096",
      "Y": "42300.9820826855",
      "LATITUDE": "1.39882800626578",
      "LONGITUDE": "103.918621581556",
      "LONGTITUDE": "103.918621581556"
  },
  {
      "SEARCHVAL": "WELLINGTON PRIMARY SCHOOL",
      "BLK_NO": "10",
      "ROAD_NAME": "WELLINGTON CIRCLE",
      "BUILDING": "WELLINGTON PRIMARY SCHOOL",
      "ADDRESS": "10 WELLINGTON CIRCLE WELLINGTON PRIMARY SCHOOL SINGAPORE 757702",
      "POSTAL": "757702",
      "X": "26774.2225156762",
      "Y": "48171.4790451899",
      "LATITUDE": "1.45192019155475",
      "LONGITUDE": "103.822303719094",
      "LONGTITUDE": "103.822303719094"
  },
  {
      "SEARCHVAL": "WEST GROVE PRIMARY SCHOOL",
      "BLK_NO": "1",
      "ROAD_NAME": "JURONG WEST STREET 72",
      "BUILDING": "WEST GROVE PRIMARY SCHOOL",
      "ADDRESS": "1 JURONG WEST STREET 72 WEST GROVE PRIMARY SCHOOL SINGAPORE 649223",
      "POSTAL": "649223",
      "X": "13083.6706046276",
      "Y": "36335.8187624309",
      "LATITUDE": "1.3448790560014",
      "LONGITUDE": "103.699286360581",
      "LONGTITUDE": "103.699286360581"
  },
  {
      "SEARCHVAL": "WEST SPRING PRIMARY SCHOOL",
      "BLK_NO": "60",
      "ROAD_NAME": "BUKIT PANJANG RING ROAD",
      "BUILDING": "WEST SPRING PRIMARY SCHOOL",
      "ADDRESS": "60 BUKIT PANJANG RING ROAD WEST SPRING PRIMARY SCHOOL SINGAPORE 679946",
      "POSTAL": "679946",
      "X": "20530.0971989501",
      "Y": "41262.9989389312",
      "LATITUDE": "1.38944145898943",
      "LONGITUDE": "103.766195711835",
      "LONGTITUDE": "103.766195711835"
  },
  {
      "SEARCHVAL": "WEST VIEW PRIMARY SCHOOL",
      "BLK_NO": "31",
      "ROAD_NAME": "SENJA ROAD",
      "BUILDING": "WEST VIEW PRIMARY SCHOOL",
      "ADDRESS": "31 SENJA ROAD WEST VIEW PRIMARY SCHOOL SINGAPORE 677742",
      "POSTAL": "677742",
      "X": "19867.3321747258",
      "Y": "40625.4829824362",
      "LATITUDE": "1.3836758200336",
      "LONGITUDE": "103.760240434318",
      "LONGTITUDE": "103.760240434318"
  },
  {
      "SEARCHVAL": "WESTWOOD PRIMARY SCHOOL",
      "BLK_NO": "1",
      "ROAD_NAME": "JURONG WEST STREET 73",
      "BUILDING": "WESTWOOD PRIMARY SCHOOL",
      "ADDRESS": "1 JURONG WEST STREET 73 WESTWOOD PRIMARY SCHOOL SINGAPORE 649188",
      "POSTAL": "649188",
      "X": "13222.5567915821",
      "Y": "36590.7433790993",
      "LATITUDE": "1.34718456606375",
      "LONGITUDE": "103.70053420978",
      "LONGTITUDE": "103.70053420978"
  },
  {
      "SEARCHVAL": "WHEE!CANOPUS STUDENT CARE @ EDGEFIELD PRIMARY SCHOOL",
      "BLK_NO": "41",
      "ROAD_NAME": "EDGEFIELD PLAINS",
      "BUILDING": "WHEE!CANOPUS STUDENT CARE @ EDGEFIELD PRIMARY SCHOOL",
      "ADDRESS": "41 EDGEFIELD PLAINS WHEE!CANOPUS STUDENT CARE @ EDGEFIELD PRIMARY SCHOOL SINGAPORE 828869",
      "POSTAL": "828869",
      "X": "36247.6589920688",
      "Y": "42463.4656134974",
      "LATITUDE": "1.40029783011552",
      "LONGITUDE": "103.907430523653",
      "LONGTITUDE": "103.907430523653"
  },
  {
      "SEARCHVAL": "WHEE!CANOPUS STUDENT CARE @ HUAMIN PRIMARY SCHOOL",
      "BLK_NO": "21",
      "ROAD_NAME": "YISHUN AVENUE 11",
      "BUILDING": "WHEE!CANOPUS STUDENT CARE @ HUAMIN PRIMARY SCHOOL",
      "ADDRESS": "21 YISHUN AVENUE 11 WHEE!CANOPUS STUDENT CARE @ HUAMIN PRIMARY SCHOOL SINGAPORE 768857",
      "POSTAL": "768857",
      "X": "29212.0174563685",
      "Y": "45411.3805951737",
      "LATITUDE": "1.42695886300879",
      "LONGITUDE": "103.844209671353",
      "LONGTITUDE": "103.844209671353"
  },
  {
      "SEARCHVAL": "WHEE!CANOPUS STUDENT CARE @ JUNYUAN PRIMARY SCHOOL",
      "BLK_NO": "2",
      "ROAD_NAME": "TAMPINES STREET 91",
      "BUILDING": "WHEE!CANOPUS STUDENT CARE @ JUNYUAN PRIMARY SCHOOL",
      "ADDRESS": "2 TAMPINES STREET 91 WHEE!CANOPUS STUDENT CARE @ JUNYUAN PRIMARY SCHOOL SINGAPORE 528906",
      "POSTAL": "528906",
      "X": "39797.6365868924",
      "Y": "36666.4453921858",
      "LATITUDE": "1.34787050871599",
      "LONGITUDE": "103.939327626661",
      "LONGTITUDE": "103.939327626661"
  },
  {
      "SEARCHVAL": "WHEE!CANOPUS STUDENT CARE @ LAKESIDE PRIMARY SCHOOL",
      "BLK_NO": "161",
      "ROAD_NAME": "CORPORATION WALK",
      "BUILDING": "WHEE!CANOPUS STUDENT CARE @ LAKESIDE PRIMARY SCHOOL",
      "ADDRESS": "161 CORPORATION WALK WHEE!CANOPUS STUDENT CARE @ LAKESIDE PRIMARY SCHOOL SINGAPORE 618310",
      "POSTAL": "618310",
      "X": "15177.0483984314",
      "Y": "35616.6021022275",
      "LATITUDE": "1.33837569571569",
      "LONGITUDE": "103.718096899655",
      "LONGTITUDE": "103.718096899655"
  },
  {
      "SEARCHVAL": "WHEE!CANOPUS STUDENT CARE @ NORTHOAKS PRIMARY SCHOOL",
      "BLK_NO": "61",
      "ROAD_NAME": "SEMBAWANG DRIVE",
      "BUILDING": "WHEE!CANOPUS STUDENT CARE @ NORTHOAKS PRIMARY SCHOOL",
      "ADDRESS": "61 SEMBAWANG DRIVE WHEE!CANOPUS STUDENT CARE @ NORTHOAKS PRIMARY SCHOOL SINGAPORE 757622",
      "POSTAL": "757622",
      "X": "25815.4884597529",
      "Y": "48691.586582493",
      "LATITUDE": "1.45662379586093",
      "LONGITUDE": "103.813688476692",
      "LONGTITUDE": "103.813688476692"
  },
  {
      "SEARCHVAL": "WHITE SANDS PRIMARY SCHOOL",
      "BLK_NO": "2",
      "ROAD_NAME": "PASIR RIS STREET 11",
      "BUILDING": "WHITE SANDS PRIMARY SCHOOL",
      "ADDRESS": "2 PASIR RIS STREET 11 WHITE SANDS PRIMARY SCHOOL SINGAPORE 519075",
      "POSTAL": "519075",
      "X": "42200.4040547684",
      "Y": "38622.2636750303",
      "LATITUDE": "1.36555714668553",
      "LONGITUDE": "103.960918869319",
      "LONGTITUDE": "103.960918869319"
  },
  {
      "SEARCHVAL": "WOODGROVE PRIMARY SCHOOL",
      "BLK_NO": "2",
      "ROAD_NAME": "WOODLANDS DRIVE 14",
      "BUILDING": "WOODGROVE PRIMARY SCHOOL",
      "ADDRESS": "2 WOODLANDS DRIVE 14 WOODGROVE PRIMARY SCHOOL SINGAPORE 738079",
      "POSTAL": "738079",
      "X": "23246.5605064044",
      "Y": "46090.8542425744",
      "LATITUDE": "1.43310340168966",
      "LONGITUDE": "103.790604437613",
      "LONGTITUDE": "103.790604437613"
  },
  {
      "SEARCHVAL": "WOODLANDS PRIMARY SCHOOL",
      "BLK_NO": "10",
      "ROAD_NAME": "WOODLANDS DRIVE 50",
      "BUILDING": "WOODLANDS PRIMARY SCHOOL",
      "ADDRESS": "10 WOODLANDS DRIVE 50 WOODLANDS PRIMARY SCHOOL SINGAPORE 738853",
      "POSTAL": "738853",
      "X": "23354.0808293354",
      "Y": "46472.0799515136",
      "LATITUDE": "1.43655108594232",
      "LONGITUDE": "103.791570546509",
      "LONGTITUDE": "103.791570546509"
  },
  {
      "SEARCHVAL": "WOODLANDS RING PRIMARY SCHOOL",
      "BLK_NO": "11",
      "ROAD_NAME": "WOODLANDS RING ROAD",
      "BUILDING": "WOODLANDS RING PRIMARY SCHOOL",
      "ADDRESS": "11 WOODLANDS RING ROAD WOODLANDS RING PRIMARY SCHOOL SINGAPORE 738240",
      "POSTAL": "738240",
      "X": "24006.7839585366",
      "Y": "46295.2823582534",
      "LATITUDE": "1.43495229315857",
      "LONGITUDE": "103.797435733144",
      "LONGTITUDE": "103.797435733144"
  },
  {
      "SEARCHVAL": "XINGHUA PRIMARY SCHOOL",
      "BLK_NO": "45",
      "ROAD_NAME": "HOUGANG AVENUE 1",
      "BUILDING": "XINGHUA PRIMARY SCHOOL",
      "ADDRESS": "45 HOUGANG AVENUE 1 XINGHUA PRIMARY SCHOOL SINGAPORE 538882",
      "POSTAL": "538882",
      "X": "34360.61483486",
      "Y": "37776.2619072273",
      "LATITUDE": "1.35790893589535",
      "LONGITUDE": "103.890472887906",
      "LONGTITUDE": "103.890472887906"
  },
  {
      "SEARCHVAL": "XINGNAN PRIMARY SCHOOL",
      "BLK_NO": "5",
      "ROAD_NAME": "JURONG WEST STREET 91",
      "BUILDING": "XINGNAN PRIMARY SCHOOL",
      "ADDRESS": "5 JURONG WEST STREET 91 XINGNAN PRIMARY SCHOOL SINGAPORE 649036",
      "POSTAL": "649036",
      "X": "11822.0669615418",
      "Y": "36078.0729275383",
      "LATITUDE": "1.34254744877694",
      "LONGITUDE": "103.687950252103",
      "LONGTITUDE": "103.687950252103"
  },
  {
      "SEARCHVAL": "XINMIN PRIMARY SCHOOL",
      "BLK_NO": "9",
      "ROAD_NAME": "HOUGANG AVENUE 8",
      "BUILDING": "XINMIN PRIMARY SCHOOL",
      "ADDRESS": "9 HOUGANG AVENUE 8 XINMIN PRIMARY SCHOOL SINGAPORE 538784",
      "POSTAL": "538784",
      "X": "33537.9261037428",
      "Y": "39267.5186706744",
      "LATITUDE": "1.37139548941931",
      "LONGITUDE": "103.883080767491",
      "LONGTITUDE": "103.883080767491"
  },
  {
      "SEARCHVAL": "XISHAN PRIMARY SCHOOL",
      "BLK_NO": "8",
      "ROAD_NAME": "YISHUN STREET 21",
      "BUILDING": "XISHAN PRIMARY SCHOOL",
      "ADDRESS": "8 YISHUN STREET 21 XISHAN PRIMARY SCHOOL SINGAPORE 768611",
      "POSTAL": "768611",
      "X": "28493.7422212623",
      "Y": "46131.5536631271",
      "LATITUDE": "1.43347186925064",
      "LONGITUDE": "103.837755319448",
      "LONGTITUDE": "103.837755319448"
  },
  {
      "SEARCHVAL": "YANGZHENG PRIMARY SCHOOL",
      "BLK_NO": "15",
      "ROAD_NAME": "SERANGOON AVENUE 3",
      "BUILDING": "YANGZHENG PRIMARY SCHOOL",
      "ADDRESS": "15 SERANGOON AVENUE 3 YANGZHENG PRIMARY SCHOOL SINGAPORE 556108",
      "POSTAL": "556108",
      "X": "31925.931594234",
      "Y": "36751.9403087255",
      "LATITUDE": "1.34864575840923",
      "LONGITUDE": "103.868595527042",
      "LONGTITUDE": "103.868595527042"
  },
  {
      "SEARCHVAL": "YEW TEE PRIMARY SCHOOL",
      "BLK_NO": "10",
      "ROAD_NAME": "CHOA CHU KANG STREET 64",
      "BUILDING": "YEW TEE PRIMARY SCHOOL",
      "ADDRESS": "10 CHOA CHU KANG STREET 64 YEW TEE PRIMARY SCHOOL SINGAPORE 689100",
      "POSTAL": "689100",
      "X": "18837.4775282657",
      "Y": "42072.9649468437",
      "LATITUDE": "1.39676600905037",
      "LONGITUDE": "103.750985967346",
      "LONGTITUDE": "103.750985967346"
  },
  {
      "SEARCHVAL": "YIO CHU KANG PRIMARY SCHOOL",
      "BLK_NO": "1",
      "ROAD_NAME": "HOUGANG STREET 51",
      "BUILDING": "YIO CHU KANG PRIMARY SCHOOL",
      "ADDRESS": "1 HOUGANG STREET 51 YIO CHU KANG PRIMARY SCHOOL SINGAPORE 538720",
      "POSTAL": "538720",
      "X": "33823.1315680202",
      "Y": "39990.3703038469",
      "LATITUDE": "1.37793264345276",
      "LONGITUDE": "103.885643682171",
      "LONGTITUDE": "103.885643682171"
  },
  {
      "SEARCHVAL": "YISHUN PRIMARY SCHOOL",
      "BLK_NO": "500",
      "ROAD_NAME": "YISHUN RING ROAD",
      "BUILDING": "YISHUN PRIMARY SCHOOL",
      "ADDRESS": "500 YISHUN RING ROAD YISHUN PRIMARY SCHOOL SINGAPORE 768679",
      "POSTAL": "768679",
      "X": "28085.526611778",
      "Y": "46122.0615023617",
      "LATITUDE": "1.43338602975674",
      "LONGITUDE": "103.834087115915",
      "LONGTITUDE": "103.834087115915"
  },
  {
      "SEARCHVAL": "YMCA STUDENT CARE CENTRE @ OASIS PRIMARY SCHOOL",
      "BLK_NO": "71",
      "ROAD_NAME": "EDGEFIELD PLAINS",
      "BUILDING": "YMCA STUDENT CARE CENTRE @ OASIS PRIMARY SCHOOL",
      "ADDRESS": "71 EDGEFIELD PLAINS YMCA STUDENT CARE CENTRE @ OASIS PRIMARY SCHOOL SINGAPORE 828716",
      "POSTAL": "828716",
      "X": "36633.3703859271",
      "Y": "42923.6562544368",
      "LATITUDE": "1.4044595121197",
      "LONGITUDE": "103.910896590133",
      "LONGTITUDE": "103.910896590133"
  },
  {
      "SEARCHVAL": "YU NENG PRIMARY SCHOOL",
      "BLK_NO": "56",
      "ROAD_NAME": "BEDOK NORTH STREET 3",
      "BUILDING": "YU NENG PRIMARY SCHOOL",
      "ADDRESS": "56 BEDOK NORTH STREET 3 YU NENG PRIMARY SCHOOL SINGAPORE 469623",
      "POSTAL": "469623",
      "X": "38998.3352306299",
      "Y": "35120.4393246993",
      "LATITUDE": "1.33388930344069",
      "LONGITUDE": "103.932144857355",
      "LONGTITUDE": "103.932144857355"
  },
  {
      "SEARCHVAL": "YUHUA PRIMARY SCHOOL",
      "BLK_NO": "158",
      "ROAD_NAME": "JURONG EAST STREET 24",
      "BUILDING": "YUHUA PRIMARY SCHOOL",
      "ADDRESS": "158 JURONG EAST STREET 24 YUHUA PRIMARY SCHOOL SINGAPORE 609558",
      "POSTAL": "609558",
      "X": "17737.7130106175",
      "Y": "36105.9662365932",
      "LATITUDE": "1.34280230475033",
      "LONGITUDE": "103.741105772644",
      "LONGTITUDE": "103.741105772644"
  },
  {
      "SEARCHVAL": "YUMIN PRIMARY SCHOOL",
      "BLK_NO": "3",
      "ROAD_NAME": "TAMPINES STREET 21",
      "BUILDING": "YUMIN PRIMARY SCHOOL",
      "ADDRESS": "3 TAMPINES STREET 21 YUMIN PRIMARY SCHOOL SINGAPORE 529393",
      "POSTAL": "529393",
      "X": "41036.7447315324",
      "Y": "37044.8092632648",
      "LATITUDE": "1.35129177656981",
      "LONGITUDE": "103.950461927088",
      "LONGTITUDE": "103.950461927088"
  },
  {
      "SEARCHVAL": "ZHANGDE PRIMARY SCHOOL",
      "BLK_NO": "51",
      "ROAD_NAME": "JALAN MEMBINA",
      "BUILDING": "ZHANGDE PRIMARY SCHOOL",
      "ADDRESS": "51 JALAN MEMBINA ZHANGDE PRIMARY SCHOOL SINGAPORE 169485",
      "POSTAL": "169485",
      "X": "27180.1468993286",
      "Y": "29627.1075303145",
      "LATITUDE": "1.28421153335379",
      "LONGITUDE": "103.825951875662",
      "LONGTITUDE": "103.825951875662"
  },